Name, Latitude, Longitude, Image
"Duftsäule Thymian ",51.828333,9.444255,"http://lh3.googleusercontent.com/eavWfh0cUFDGxYNq9AiS5U9xwwWs1UkPmjsTjnsxoifpOmWs-YnEpewvWZTHcux6Ej-FTPuej1SePcs66ERvbfE-9um3"
"Niedrigklettern an der Weser",51.828205,9.443738,"http://lh3.googleusercontent.com/JYvXW9VS5ZJO9KKvQEocJPOYre4TNFvfv96SZLfI8Kug8Yp2bzBjfaPk8G1flJcqf9nTZbPu8CKaWoJuZxebGvU2vizP"
"Spielplatz Weserpromenade ",51.828641,9.444011,"http://lh3.googleusercontent.com/lX6Zz5-qWCPBSPklF4m-Y1IpKBJCkXYp58auUUQU9GhONA44pFGagLVxIlfgZgXBgDM4IXSwo2xv33V-zQ0qSij-sFM"
"Grete Heinberg Garten",51.829718,9.443814,"http://lh3.googleusercontent.com/nm9Nqs5yy-Ein-7b0gvAil_4_M9oJJULKuCr0wdolV6Gk5fv5MT3tGPMl_ONSdvEpIFGshhf4lFj49OFc4a2MHWRLg"
"Memoriespiel",51.828711,9.44362,"http://lh3.googleusercontent.com/URTGCr0b0hhBycxAJbMv3HNT7p3Mpq34jbQHdvYvlAdmTJC9gD37h44v8DLOKCvLc3V0ybNgmzp_9j_OuDvF1B7ksA"
"Statuette \"Der Photograph\" ",51.828426,9.443798,"http://lh3.googleusercontent.com/w0Kg1II0hPSh5-umWOfx73r55UHQFnCIZpp9Ak3o4jWk9DeqB6HN8SFzlXj1sr44ott2EM9k1v0EjBQNLdGrZLnUeg"
"Robert Wilhelm Bunsen",51.829423,9.443988,"http://lh3.googleusercontent.com/n3Mp8gy4-sG_vCfkr_UwJbIbLgCCLwGyI3ZvTsyegkhXHDEtemgrkQ3XrR8LsovKghG0N4_2IndRNxQvo_a2e3oyRzo"
"Kanu Klub Holzminden",51.828137,9.441833,"http://lh3.googleusercontent.com/KzNQJehsAF6pUmplpLxOt8k0gOAC382LfArdaFz79JFyxtBhv1Lin6fvDvDdqspvybNYW68I4r9Y8Y07k7hzM7mO_A"
"Skateboardbahn",51.829274,9.439787,"http://lh3.googleusercontent.com/-e4jFrF5x5GcC9RfFyoLWnBoGEDku4B3yvmPi3jy3_3-7C1l1bXmGzDa5pXSThTPQpKW4an8jrwzRUn8U4piiWznRJRP"
"Willkommen in Holzminden",51.828208,9.440345,"http://lh3.googleusercontent.com/P8VonRWVKjOWOX2y0rMuSfpgVwnqsj52LrDWdGhVqf74ilVcvydWHd_xJgmcryMjIvpbGBNUsr3ty6CbNOiU86y2giE"
"Das Eichhörnchen",51.828171,9.439265,"http://lh3.googleusercontent.com/UhLqDymyuGhiM1ghzSKsS_KG-y091plJFa6sQ8LXRj9g2nVb31jj-s6FEi06OIX17RufdXGoKRjuzqHZaBb7qsu8Dg"
"Statue der alten Weserbrücke Holzminden ",51.827836,9.441571,"http://lh3.googleusercontent.com/a2Kx_6eEOOQ-syzvs6VMwMf-EoT3xhR_ivKuTrHkacTaV8YD4_acVCvTq-gAxbCCewqvWbLMvrvjaU8HnK3JyEJXL4w"
"Die Eule",51.827481,9.43953,"http://lh3.googleusercontent.com/BEli6zcs3srknpFgWmy9palwQuCXrrSDsRRlQ9fILaZNSM6L_cmqHB23fQM1mHBLei0Pgpzlpc08akmTrQkYdvuqmPg"
"Hallenbad Holzminden",51.827633,9.440451,"http://lh3.googleusercontent.com/ElbqcFU9tBXck1AEOMdGde6jv9xwdwoFFnWEjh4WQzPB9n5z93H57b-yEiq56u51q93o-fV3weqJd32oN-k83x43BQ"
"Metall-Baum",51.827886,9.440868,"http://lh3.googleusercontent.com/L0vpaXqixqgW8lAJz3kDc3YZoGR_7-Q_lXRGv3r_6s3jmRrwm0NwTffHc6a3__jFR61PI53TCqyH40HCW1FzmaZZRHzz"
"Antik TV ",51.827343,9.44347,"http://lh3.googleusercontent.com/-DMTjnSlI414TnbQmg18stemtPA-9JmhStMpJCtU19ZDg61KsdzdAsqXOm7PsQh2DWpBWnwVZs4Q3-VhHeDyQn48dVc"
"Hotelturm ",51.827114,9.443838,"http://lh3.googleusercontent.com/WKlpOMXE9qXPHRU2uRlC3GczITjVAHQm3GSMAKrobJ8p-JMlhMA6FVcnCfa2rPnzon1fzeG3tN_LtrG3Vyebap0TpQ"
"Tunnel Hafenbar",51.827755,9.443541,"http://lh3.googleusercontent.com/mKmjm08mC7qxKuPQ0y7dJ2Fsscd6oGvysGg-nzxZH9aquhUIcp73N6-T3uQOXt50q9PnP88PcHsoDubgJ03TngSIP5E"
"Das Pfarrhaus/ Zollhaus",51.827428,9.444059,"http://lh3.googleusercontent.com/o6u3O0Om6gS_ON2ULaHLKwbxIZaCWBdKBhTGt2MgEh6LAcP75-qF6yj5mHT88ao_gA_ZM_ArjH0O52g5P6CnHhuSlsU"
"Infotafel Holzminden",51.827593,9.44378,"http://lh3.googleusercontent.com/RYo0I5vBQuCE-lrziaRWWQJ2pdAPLF0cLU7zF9vUtS7lWEIBf_opXeBwpFy95UAHUwmF5CYafsoMzN5pjYRqBXGxvz0"
"Wasserkran ",51.827163,9.443412,"http://lh3.googleusercontent.com/1Pc_vSk-P-YwzqlP5XOhy6SBIi_ZLehfxRkluLdFevHDeWle019d54SFdjBX_5Oky93cSJa4kq38iAeM0SaTtTgPCznj"
"Europaradweg R1",51.827475,9.438757,"http://lh3.googleusercontent.com/8KT7JSj_hzZbixsMa7cb4esS3zLT3sln4zNA3vq2ge52MJlhPiOz4tGcpaDM8ZHXqJDn6knY8dLcoM1Fr2VmjdLuBg"
"Stahle Ufer",51.829581,9.439458,"http://lh3.googleusercontent.com/_PJtah8VWig5FGifNY_UtmOy-sSkm1NOST-NDOJepRxngWs5oW3S3MJZJSr35YFkz1hY-bo_6tc5mmsRKBW2KYFDjWE"
"Tonenburg Und Saumermündung",51.814446,9.405312,"http://lh3.googleusercontent.com/E1rIWwq52NZuzvHSnMaV5_kN-jKgmysPpKDumE8Hyhh953P80v1NufsWwf5OsZ-a-C4k7AdmSkbzPo1qZ1XNrTz1Sg"
"Sehenswürdigkeiten Höxter-Albaxen",51.814119,9.405278,"http://lh3.googleusercontent.com/Wo1CL-f5YpjlyMHmnVq7yiFTERi3ePmavhaUz3pL--PUewN7_EK1MbgjRA4pIHvmyzNLoJ8rqGcNvHemYapsfQzh044"
"Marienkapelle",51.81997,9.408605,"http://lh3.googleusercontent.com/tK_K0J2c5t6JUBzI8flErwu--dcADQSzTKsrcoQK6ZgSfe9RljvHlDLNxsKwGJyl2sxuZKXJ6dS54qC7StAedTbiHOg"
"Informationen zur Saumer",51.815608,9.407903,"http://lh3.googleusercontent.com/lbqDD9nZr9wy14JONF220-G7g_ogZSnkPmBnYm_A2so4PA5jo1Q2D9BvKe-VlEeAsV7cinH0zmeaTO483SivQHLDFmM"
"Sandsteinkreuz  1902-1987",51.815467,9.407582,"http://lh3.googleusercontent.com/4-L-PnK0tskf5X2yCTwlHBnezRT8YtoFJPGPPN5qgKtpfGROb0vf96zjXpPZiAqQV1pKGLHSepSiY02ydHD8TFhzSepW"
"Schützenbruderschaft Albaxen e.V.",51.820268,9.406407,"http://lh3.googleusercontent.com/CABm2LluCoHFDbKr8Ht7M6yStWl_TmWFmVXLqJH2RxQgoj5rjShs0dnnS6UrMTRv7aw71Mczs22WWlF4xO1WqerN4oGE"
"Spielplatz Wehrstraße Albaxen",51.820146,9.407267,"http://lh3.googleusercontent.com/vFASvKYX_pKgyC0yFxsyRmoB6VyEGBeQFc-UimsnfYWMN_u84vGh2hFSJgUEtPG1H5PtT6u17TBehcVTm8dHVM3UVmg"
"Spielplatz zum Wesertal Albaxen ",51.821214,9.405242,"http://lh3.googleusercontent.com/bichkkVu_HTA4riWNFuHTuIm4spyPUN5CjG-kHtpy3fQbWGXW7q4Skrk6gsn0BhlWq66_6rMLbPmkq7egmljCizmJY4"
"Spruchtafel Albaxen",51.821669,9.406644,"http://lh3.googleusercontent.com/iXEU-22UKBi0jvs89DRytu6fHqoJylp4A7GHPf4uFokdn5daLOLVqcUF4p5FdMWhE8UVplTENMM3y9BtwiGSoMKQBpM"
"Missionskreuz",51.822688,9.405319,"http://lh3.googleusercontent.com/zA8gvYdctmSVd3CdmocEwQuyrn5NGB6ZWubmYyXwI8GBwUnOVA6zZlohkyMXnuku_vKTddK7hQbbba13If0jL2T58g"
"Begrüßungsschild Albaxen",51.824111,9.409061,"http://lh3.googleusercontent.com/CtiJPdzaUQhNo0tY6YDNy3afk8PbJtxuGkGdE1pBAm5NMpQWhjXZEwz64z0peayFUWau2TLszFO1_b3U8-kdySF4avni"
"Feldkreuz ",51.824894,9.411965,"http://lh3.googleusercontent.com/2Wh3UNunDrt9azGzhzGij1h85gfS8k4sh5c9p7acRfnxlH9HRfgOmnZYNQVjGBSOMMm0AEw4piKv-rZ-I9Lr7z0HBwc"
"Feldkreuz",51.814195,9.401558,"http://lh3.googleusercontent.com/B2QhIWuqWimUYYc-IpIKXFdOQ3gpOxgCFFuyOphSwPbenF8RHw3v4sis3MMY5hZxU1Df8uIdYI7qWavPTtBqgIobUWA2"
"Amboßhahn auf der Tonenburg ",51.814259,9.403682,"http://lh3.googleusercontent.com/stz0mx3fVXZE5DqkbF332EFuGNrY8jmc-8g6dZob6tBJTbuPyLxZRcP49x1EGFOpzj4zVCjnqU0JGUpQwdH64JGYSCQ"
"Tonenburg",51.813966,9.403691,"http://lh3.googleusercontent.com/0CrFlGUrzx8qJ09_l_F3Ov899PB7tn2FU5_9ysv9e3xiDFIJHymbTxhKE8Y97wOA_tdZyBDZbaaa5uQKwbUQJNXp0oA"
"Alte Brennerei Tonenburg von 1660",51.814584,9.403093,"http://lh3.googleusercontent.com/4eB4UqG4DMBfRCTK5AuFwVRsvEb8kgQBz_FEbdr2HwWQjYvHVOsv6R-ApiFr8nCusC1cQikjXiCJa0lDV3--guYTMw"
"Schilderbrunnen",51.814488,9.403657,"http://lh3.googleusercontent.com/28nEoB3J064tpwVJgltLPp2jeinFIc9uwfUIYhWx1mnipJTPYiiMGrnsL3cwgCaL1AGUTi-yIgj3GKMT8wCoQHY5CweW"
"Heristal",51.813718,9.40356,"http://lh3.googleusercontent.com/L5DLutGixYndIygP9gamhgOJB8RGBX31-RzZh0mi-ty_vWD6kuOlstadR6PFebfkiZUVmAkVbE0Y_qVwP6iu03laKA"
"Totenkapelle",51.819187,9.399579,"http://lh3.googleusercontent.com/a3EhWce60jpR-vMo8b1-EGbCV6LDStibYYvsKZVirn68Eb2SUGSl5d4GPfV8gs_CVo3N7X4jJLm2FicG_UKrxc5nZdpz"
"Fensterkunst",51.819137,9.399255,"http://lh3.googleusercontent.com/QZCwHPUmAkxFpZb_Et_DVZVPpzuCMfQY6LghEsHe7FXe-gfiZIGTFI2aqoxNZ1z59GObf1PWyY-Loug15523RH2cr6Q"
"Wahret den Frieden",51.819573,9.399787,"http://lh3.googleusercontent.com/fSpVBGu3QeTKopybKx3HoHLnTpjFxqebHtQPzABFPrIPe2W4nsOjt1xf4HyvqWhjuDMMbW57Iip9akfE6HWYtqRJdg"
"Ich Bin Die Auferstehung - Kreuz",51.818538,9.399253,"http://lh3.googleusercontent.com/8rKb1iEDvx4UIEfKcoEJftx9iZycPrctV8Vfwt-BGEdDtbxt2ppIwtin1s-Hum8qoOZL6AAmI7S-ikvZ2BhkjEG4sa4"
"Statue an der Kapelle",51.818984,9.399872,"http://lh3.googleusercontent.com/kHEP0V7cDE5p3Q4ff3eddNaGCc-US63VoyEwXSavveK8K02kimUfkSzzF9MwhI-hEAVPBJ_FkeOu_-0XDhE7ICYJFQ"
"Willkommen in Albaxen",51.818233,9.401093,"http://lh3.googleusercontent.com/5De13ihEIbMMWU1U91MAVBlFB3ZD96FoqcgcoRVpI0TrbIIcD0mqslxfdp74CZwJ7pEbx0_n0Y-QbiCj5r5x7HCTN-c"
"Gedenktafel",51.819469,9.401895,"http://lh3.googleusercontent.com/91QAn1i1BrM8b4KepUUmg0Snc39A6N_FV4BU2Mr0uE0sIsnOYGCH_iQjhVbC08h7UCGAu0IpziFG_0MvJudSmZ-Jng"
"Kirche Albaxen",51.821366,9.401436,"http://lh3.googleusercontent.com/_RRzm4kK7JythOucfb8nKKSxphO1kYKAMM5h-FEeAs2SMD-jSskLqn5UgbM5krAbRbvPyQghfjqlq0UGyPp0LagC5FM"
"Alter Torbogen",51.821852,9.40077,"http://lh3.googleusercontent.com/3WcnqjkFrp-ylzk4LnDREwQXiKxoG59vM_uO6lOD5IyzVN3MTqlzHMiQwEzDiYuqDtFvpuc62jjeio64Srq-DRgQypZB"
"Rundwanderwege",51.821838,9.399492,"http://lh3.googleusercontent.com/u5WigUeVKXw709wpySYZjHGyMVfzNFYBT6s_rn4LOKfp4vzugBnJjAjhnKi0U_cW8Nd1MxSVGEdYg7yGyTQmSrqGtBg"
"Wanderkarte Albaxen",51.820861,9.400037,"http://lh3.googleusercontent.com/dNAGBj1y98C2GLNPiLVz5zPN1FrgKXE1mM6wKs1T5abowv6HqVNWExACLhUoReVYKjfz05AVj41T-zdsGfh6z5WaTzI-"
"Prozessionskapelle Albaxen",51.821911,9.396237,"http://lh3.googleusercontent.com/LKQ1olujIpjFFvr3iKhBS1JKtklIXWQLN6XfPfb1yoFJXzTkd3I4j_SN7RyF0fyB7ILIPcIXHm9lmTQ4rP6OjGS5Yw"
"Alte Schmiede ",51.822052,9.397599,"http://lh3.googleusercontent.com/FZWtbE_wbQUOpDXZgMbPyVPFUTT42VC_-sClhS1keSzuIXtujsNfDSkDB-Y6K_ASZvIBcRh7qQd7E2QCF4Q8hLryPQA"
"Im Kreuz Ist Heil",51.823538,9.398144,"http://lh3.googleusercontent.com/PGem3uRcqcx5P4Xr8UJUZbM79SnDL8E4DtZvjpyHPGfvLY4RXZjtQMxfu3fLef4jtC-HLuLmY87Hi-EVVOeC3Y58o1w"
"Backhaus Heimat und Verkehsverein Albaxen e.V.",51.820604,9.398644,"http://lh3.googleusercontent.com/dgzwyz4yz0QbfzH8YjIlm_EViwzs0qrV5jHft7wcBpZoW7F2MFcDxb_Akjg-q1BUK3MI_EVnRsQ9-KX-2cJmRsBKSCuu"
"Insektenhotel Wittrock",51.81745,9.416899,"http://lh3.googleusercontent.com/uLTmq_6hch0HuhUD7tdlhx90OLX_qMc-8YZulKPiob4R6VVnxzPdAQSYyhEPSGaMrb-wvGWvzae5mTyKhrFX0g53X9JP"
"Schutzhütte",51.816956,9.416847,"http://lh3.googleusercontent.com/QRKGENwPDWWvyakQe64iJb0m9TOPktY7CjXnxYj8p6fUWgivC-Y9hi0q9OCuue33b2kZQTKxRojNP0_TJ16aOlqmDtE"
"Feldkreuz",51.82747,9.393996,"http://lh3.googleusercontent.com/j2Pa3GyaR680qRDr9dxADD4Vlpfa8K5fSxG3iCrWFAjaITi0JS1dtrf2gPdiPF7N-hMTdROTwjIVV8HpsiA_poXWrvs"
"Feldkreuz",51.824885,9.388816,"http://lh3.googleusercontent.com/HwETzC4snMDtMSLueWzk6X_mbH9pYxNLpqOxv3NogFHp7lofIZU9-AGmjzDqnwqOOUPAAfoWWRQhjgCCGue79t407w"
"Marienkapelle",51.824739,9.390647,"http://lh3.googleusercontent.com/gUF6tZt1mW6DAkyKFbY4cM6hlbb5hAEYKQFubwQMpIuTLra22CUKou5J_7zsYDKpD-LGwhmLUotXNDCGlnvfMJpTUA"
"Grillhütte Albaxen",51.825299,9.387445,"http://lh3.googleusercontent.com/hdrLtTBMKPXJtSD_O2kljkFAvbq24mvSW_8JsW7F0S_IjDj2qLGUNJyXcbmM-QgYxvGRnrsDomwuLFgvbsOA782Tt0Y"
"Die Albaxer Trift ",51.825664,9.385995,"http://lh3.googleusercontent.com/BXfyJGAlSq-624-zdPuagU7p3yUE53SrSBLiL8eFhkrKIpJWhGEbUpB4la8l31S9Mk6o4njrhjZFksrj7IBQTdnpMQ"
"KleinEichen",51.826462,9.383187,"http://lh3.googleusercontent.com/Ovuv-uWKuAwfiHQzxwfYWtBu9jpT8nQnv0DaqU6t6_0oVAQf_WDBt6Gn_kFJuO2esde4GanPpNezHeaGjXyl3zx7aVnW"
"Spielplatz an der Saumer",51.820709,9.392826,"http://lh3.googleusercontent.com/m_UZpiU1WwNRo1QVNz4meEuISq7SgaPKhd26iDbIYu1kN3ouHyR2-Puip6CV2HfO1wTtEQvzSrsd_GVI-qOIZ33TG7Y"
"IHS Kreuz 1861",51.820699,9.386998,"http://lh3.googleusercontent.com/6_mFvvpj3mragtqCr6UKWIk4de9BXE5xdVBaLU8siDjqe5p5bK52D9Qk1osr4ic5MS7dS9agHNa9VQBwJ_fe51meYLE"
"Mensch, rette deine Seele",51.822723,9.387182,"http://lh3.googleusercontent.com/2nDd9vN-XI8Nc4pQa_xkQWJcydAfRgcfE2egxYvXDlBlKY1xSryYo9dzRJiGZrpCUdW4-xxIQr31kGUURLZLyILxRw8"
"Infopoint Weserradweg Holzminden",51.824352,9.438443,"http://lh3.googleusercontent.com/jaqwXojBJwKbFSVmgAQIac018HpR1cW3JwRqQFWFx72q15H73XMYcEpt0ofzK73P5ELd54bAsqMv5ezy5KBJZfbooYEM"
"Feuerstelle am Teich",51.82527,9.435449,"http://lh3.googleusercontent.com/qW6iJftdsfWYPd3zCk5tFOZtE61QSl-1lKd6twwjxKhwNfBoWFVS1CdvDAhwLM1KfZyN4qSso7ZCR6CEJ-Kqg1CflE5P"
"Tennis Club Schwarz-Gelb Holzminden e.V.",51.827121,9.438571,"http://lh3.googleusercontent.com/PliKBoHk2KoXBPXeWnWsuTRqOq7YtcvxqzNLXBuVGGSuMTa3xpU-5pOis3em5YRvv31ArNf7PDUQawbqM8XSbYaPlFY"
"Freibad Holzminden",51.826524,9.439847,"http://lh3.googleusercontent.com/edunWERo5kMtpUKBMhNjk5Ed4qNGfn9hcm_WhSeci0xN_rVdEFI6TCX3S0QgpEvlJIhmX11AWqz3UvbHpVp6qXW5J4s"
"Herzlich Willkommen in der Stadt der Dürfte und Aromen",51.826912,9.439618,"http://lh3.googleusercontent.com/A5rJXu0liIFAaBSkNDfa1nAZX6ZTj1TdbQC_4a1l9UClOzHX3UKiH-VElSOCfgGJUVAL71B_Lrf9uEIyUiKcMHbmczg"
"Infotafel: Holzminden-Zentrum /DJH",51.826766,9.444009,"http://lh3.googleusercontent.com/hQPtauBqOnsm9f37-IfDSCDqc-1AZ3mj5MBLTV0iIVzoh-NAZ21j6YK1yivQUevaNcrrFLgcUaSRt1PZX_yczo3wRCA"
"Infotafel Historische Hafenanlage Holzminden",51.826617,9.443349,"http://lh3.googleusercontent.com/ajxmHyNIuhdehtumk4G1lftgTlELD69amCKaEhIOQ7_hyWstqpoL-7KQP7zigaZaP-v43ZhSkeEDUSTdfx0c_n-qQxtV"
"Infotafel Historische Hafenanlage Holzminden 2",51.826452,9.444274,"http://lh3.googleusercontent.com/y06GhcPnx8WZXPA9xGX4RJSBUBLczSVJUM5bShRC-fE8NmjtmHvHtJRJwWiRBY24PhRy9kuM-4ByGTdJUpSzToDFI29c"
"Landkarte der Mountainbike Region",51.826708,9.442891,"http://lh3.googleusercontent.com/NVtfoIfGB6HDdomWN-jYwTVTdlQn5MkVWKD-jp1BdGgRbbWG02Y8Wn6ES5yQBGVIxMSdcY4R-jJczMWhyx5NKB5VzC41"
"Duftsäule Citrusfrüchte",51.827384,9.449158,"http://lh3.googleusercontent.com/jBYnx-YdolmkM4ZuHy1RdcA0piEzyfq02fEmEGehGpC8Ukr4I16Kt36UdtzBCvqC6pucMihspO_6D4i0TvmFFTZ_iw"
"Reichspräsidentenhaus Holzminden",51.827155,9.449207,"http://lh3.googleusercontent.com/KRBtOKHTGt6IDQR134wsK97BCFMv_jRA-pb-bQ1cjBl8WKj4EIYNFw3qfqNx4OSaeI5PT_MlE__sy7O8LKpP2T30WGjc"
"Vivat",51.827194,9.446647,"http://lh3.googleusercontent.com/wuM1mPy6OHNM4u2E6M9y9_1r2QoQolwyIaQsh0uvrtTTsLGf9M6pdmoBZDDEJjwzLhPJlSZq83tORwMCOBBkWHYBv08"
"Alte Schlosserei Von 1754",51.827413,9.447061,"http://lh3.googleusercontent.com/jl2XWsdn5CzU61EaSob3Q2BrSCECVQa0YPR9obPoyILX5tdeILGvAUZIN5N5FByePxAY1mO9D7uvBaH6pSddD4Rhl7k"
"Heinrichs' Ackerbürgerhaus",51.827225,9.447726,"http://lh3.googleusercontent.com/yPw1nKtW85ADsBbN5vknzJR_66y5vZSU85kqwptMsusBAG6SQ8oB086jHF19KkNNpzYsTbVgYWJszdWB--64EqUfCanB"
"Duftsäule Geranium",51.827754,9.446624,"http://lh3.googleusercontent.com/uchKirh2-EPmsSp7ZM7lsaWsUQyOuzqzUsxSkE_sSMwe-hZnwLnaiAuZSetbKeAhZVFbiwa0pfHC4DjmVJyU5W433JtQ"
"Kinderkarussel",51.827766,9.447085,"http://lh3.googleusercontent.com/9fOQsXs_ZEsCY-AG0auQLQvBeNKwfSle2O-QQdc-PgtgJgR7T4OfuFsje9Up8K4Of9fspEnaNXymFVSn_YxR8ycDr6M"
"Wilhelm Raabe Brunnen",51.830079,9.44727,"http://lh3.googleusercontent.com/4xRXDG1uwtdjUKfE0tyGnLcdVXcu1xLk7sBZw5bD3QSA4VBtjgITNlHDG3HXzmUrxdDkM-ZS0XAazC6ZprOZUeSL-w"
"Stadttor Holzminden",51.828616,9.449273,"http://lh3.googleusercontent.com/nFXuRc7Y6Fts5nbFKOMs7A8Y4mf90v_xdaV92eygkroMvTrjtLsWaziHIC50ir-3Gi7oLmMAxtd93Su44KTqqNspBQ"
"Duftsäule Pfefferminz",51.829323,9.449834,"http://lh3.googleusercontent.com/8uOnyngtiZgaXXGEZfQBCbx5aPLVC35vTjPVhhZDxVvi8bUNN-O103PZ6-PN6whLg2A946fTu8D51Gi7FlObGSIMiso"
"Ohren des Hauses",51.828892,9.449086,"http://lh3.googleusercontent.com/ZRoUUA-KfXW9COrZUq0QchsDe9Ptz0b-cOUYrLAwSvGi6Zw4k3RtyDGSC7W8SMOAYz0-dCTPqtJFRPzmScdM8KkyVMs"
"Miniaturmodell Holzminden ",51.828133,9.447218,"http://lh3.googleusercontent.com/OdnVGQLOwbzXm8v298PuMCr1HED7i9LjJoCIk5jAFJ3antLq_SHh1xx6p0fFOWq2DabpcItZtP9ai5FVd0eeyK5F9z9I"
"Gießkanne",51.828509,9.448221,"http://lh3.googleusercontent.com/l1w8ayRjDX_vaVElH2gbf-FQiILCeR-WisceuFJaTlZCnYRy4NU9Cqhl70PWFw2DNknMUDuK_-gX1QNMuvQghEudO1YD"
"Pumpenbrunnen ",51.829774,9.448038,"http://lh3.googleusercontent.com/4pqqwTrZR0HyYlNKY0aAWiOXANCFS2RrFDUL5tU1ekOiYewsJ7rFbItpNaU_0YrDK0yAndRgS3ioXKlFITFTT4VVPdo"
"Roadrunner",51.828914,9.44708,"http://lh3.googleusercontent.com/OGYh6CpHz4p5Sw4SDflXq8mnJ58OfqczOPSejFrMEBUbU9owWWnWlwXkSDW7uylSaRrZEu61U39Op_4qQTuV3HLAWfI"
"Das Kumlehnsche Ackerbürgerhaus",51.829277,9.448818,"http://lh3.googleusercontent.com/z6v5cEKuayLfqKM-4OszCHTQuoTGJO8ZA9ZfW1huXEFKy3fskPx0BUiZfZ0OqE5jxtxzmbhu7ZrMVFEZJO2tuXcleAI"
"Quellstein",51.827775,9.449286,"http://lh3.googleusercontent.com/6vz7QSoMQNlNWyaDzzl9xUm6oVl7WV1HkPonypBfth4nWjZFlavLAawprlHZe24G3p7G6DOamTdLuKaQEqj389MLf1U"
"Duftsäule Hyazinthe",51.828654,9.448039,"http://lh3.googleusercontent.com/XDx94PptTAgPuKBLGKj1pNPEeCT-Oabp_StIxMD78nkKN5q2BtAfX8jv8Bx6e32D__q5HJIKPWCPrgLmXd-O_GsAD9A"
"Raabe-Wanderweg",51.829252,9.447918,"http://lh3.googleusercontent.com/Jf-3B9Dm9kwtJQx8gsWmQ7d8SFnqQO-uWbXkPdkhDSciwvWeNNujWxE9kAp5My1_q81RjiHYc88R4GdgNX740AWqPDo"
"Duftsäule Anis",51.830219,9.447714,"http://lh3.googleusercontent.com/pX-ndRtk5wwi8qoKfFnUxH-wz12anzy8my5Smo5ZjtvAc1Vcs65sbfGQHoC0Nb38J2o8ldQ16rGtiavahUNKu3NVjgE"
"Mülleimer Kunst 2",51.827821,9.448053,"http://lh3.googleusercontent.com/KskvaDyFdWx9O0th_9YLxPhgCgaDRQApQvOcEu5hkXyb86SE4U0-ugBuBPkP_BEBHPq5fK7_UydRG1NSTiBzZkypWMI"
"Radbauer von 1632",51.829536,9.447916,"http://lh3.googleusercontent.com/RBZ3EU0HEfdg5hMgue4zCQZkASev4T3FX0QNr9avTf2Elx-vjy9Ei1NEO2Zp0jjoS5p-JXqqnwCx__CVy248Nl5EEp0"
"Gedenkstein",51.828699,9.449677,"http://lh3.googleusercontent.com/amLvffDDASLELz90w-Tn8yik-DuoLAg9EZyzSUHXWgwLcnMF5LKFZ4NW8H312KRUftid_nZvs1zx7Q8orQLFUTUl0RU"
"Marktbrunnen Holzminden",51.828362,9.446489,"http://lh3.googleusercontent.com/LIQfRjuokWWwdVXqUn_1Gf77BCG_sR3E-bxMwfRd7pt6R1osW2vXmDTB8MnDLYoasMblI8zSVNh1p_Ib0xGkR_XHQgjs"
"Rathaus Holzminden",51.829653,9.449698,"http://lh3.googleusercontent.com/QNrHYyOhBMYxsKaH3WQusZgihyxHGXO8RbC_6E_eN7Ty1nltHg6-aJq3NHAAbwWi_BwJNiHfu2jlKXGizkxHPxvoBw"
"Ackerbürger",51.828511,9.447099,"http://lh3.googleusercontent.com/WfieJaCGuv692D4mi7SNJxEV8JYDh9YEvTqQjYiuunBLlwnDcbkGALCBYfC5ZaggRKEo7tgyUpwpHlH3w-bm9DOL5Bg"
"Duftsäule Brot",51.827871,9.449403,"http://lh3.googleusercontent.com/rH1dDk7gQLccm2EuwDiml51sDkeq8hhZ6yomuUdZ1xw0Ve2mr_Q1HxgRM_FRChBzxYgU5Ar6xPG29hNjuxZ5VPJ6T7w"
"Mülleimer Kunst",51.827853,9.448621,"http://lh3.googleusercontent.com/ULAclD5xcHrRaXnBrXWqIevTywj6IZgRmnr-dirDkehlDfTKtnP5aDQ_A9r7puHyEtEq0PVeAFxU1zxGSsLJc-sQQsI"
"Qvem Non Doctrine",51.828589,9.446344,"http://lh3.googleusercontent.com/CFdZqZ1xvOhLiADsFcGELcoQmTpW5qfT3ZZlDe9VpPEiwkAaRhZX0gvNfe3_G-DKA3bgbELuo-SqeSj3hnHyp302TOo"
"Bürger Haus",51.829332,9.446822,"http://lh3.googleusercontent.com/8WOg-1qQu_5UUDOr3pTX_IyATGDS4H-WBTHU98vPZkXOutOI5Ip3kMKK2PTdo9DNwADBe6V3MVZA22bmsFuy8XfOQ8Q"
"Man Of Steel",51.827801,9.44849,"http://lh3.googleusercontent.com/3WqWahoqcULfvoeslm94Omh7hyKw_QR7AhYRlxrFFQWhYzx5-l6F5LwiUeOEvqU0s7xq7LoM6F6ho_2ZzA-rA2hzpA"
"Haus des Handwerks",51.828192,9.446196,"http://lh3.googleusercontent.com/KoLuDCX3iJn4wuHnZF4Mvn3JANxIpMZREJpjgeGLMO2JpwpDo3gGyrT-vIHe5Km9sekkM2OUsD3SgVtehoHscxRRyAw"
"Amtsgericht Holzminden",51.830796,9.44956,"http://lh3.googleusercontent.com/kt6ZC_Q68wBGFauSHgtUZfu07jpbcKxnvqI9ayMmEE0O4Eo1bAUFBIxwnGaBtDdiLJEyO886qS2IIaMG0VUvW6yTGrvF"
"Wandmalerei Handwerker",51.830574,9.44737,"http://lh3.googleusercontent.com/88OUqMjNuAqopPdZ0WSO_K43oMoJ2qSq12XRfy7-AwWOi-rnQuAdQZ7XlsDvIeTFD9iXC4IUKT4odu5uw6BvmvtBS8Kj"
"Garagenmalerei: Das Pferd",51.831548,9.449119,"http://lh3.googleusercontent.com/fnUyD-Gh0bqVh2IJ4BnzDXPlJ1q2Tv8wq6wtOc27upwPHO1M7DMYRGnZx0GQm4g3SbWZ7LNt7eG2aRfRGCsvXhiCnCAl"
"Antik-Lampe",51.830155,9.449361,"http://lh3.googleusercontent.com/8lj6ttAErRghMP6iFBkGgDDAwnjQDh5ObxEaN6vs4mg1wF-0rkhC-_1GxCl7eYh5XsP9zqXmmPaEdg3uTCf1OKDQ4nsh"
"Aussichtsplattform an der Weser",51.833238,9.441227,"http://lh3.googleusercontent.com/7NaBqADdqekhY6Ci6vUZtgKJ0FUGGVtrFTJc3s_AnqN0omDU4d3KHd0cchXCNX78tp9Cr4VrjA1zaom-h8sMdz1KQ3UW"
"Florian der Feuerwehrmann",51.831152,9.445566,"http://lh3.googleusercontent.com/A96xJQOLrRYe9evGSw4E5CJ2fZVgl5RWN-wVswy5vSrXmOIcfxbtbTUrAzv8xZmskwpDmNXp4aNisvww9Gxhd2TLuqb7"
"Künstlerisch bemalte Garagen",51.830978,9.444593,"http://lh3.googleusercontent.com/0sRDnIDF_AxgZHoiCondEQ0rg-i3Ff8nPiXe1HVJiK78_PqjApojAsxzf1aCu46QoyiT1xE1WyLoPFMwD2gnZF8SULvT"
"Holzminden Silo",51.831245,9.443856,"http://lh3.googleusercontent.com/WFduqh7P0TCaCqnURNYPAHWfZNarSOOEnDdDuixD9F61iA3F5Y_7xExHDttqYWH_p3303StlvzrL1dWfmybHFF2zwC3B"
"Fassadenkunst - Maler bei der Arbeit",51.830898,9.445487,"http://lh3.googleusercontent.com/p58WBMmEQVnVdC3ironZS4DEuD7L4-CnIw67umuvMuhtS3RCS9NzVOJ8tiGIZNFSBs1FNn3XstN2w5hgf-S2pJUxAQ"
"Alter Kinderspielplatz",51.829593,9.446295,"http://lh3.googleusercontent.com/xWQLjJ6lrJLZNTxP80ursMIfCp-Ehc2jrdiMxiXWR78Ps4iqS_Oy6XK15cNjG9GPVKH15UZeCto5SXWu4n3JAq4aMjw"
"Duftsäule Apfel",51.83037,9.44472,"http://lh3.googleusercontent.com/YWBLSYJSUHwvf4L0DNUwFlehxAFxx_BrU4vyRY6w3m6xCXUlGXu-6rpoZAun6zU1Ky9K-ZJ5aWM6cAc8qRuKGvGwMUyO"
"Luther Gemeinde",51.828735,9.445033,"http://lh3.googleusercontent.com/ylyq1O5C6g-OCJq7j2WAd1fD5IPVfE0Z_X_G_0w-_O_rM8kNER4fWbD0zeQzIagNUGLhBA5Av2QETc-BResvMD8xnA4"
"Öffentlicher Bücherschrank",51.828625,9.445657,"http://lh3.googleusercontent.com/Jov_-eL_fQM_0APRPdYPTUdgjNahcBy0TZUVzS6zII8pAvNch6ONogN0fQlFJcyv1FS1ru7sevEA4wfntTgHeJkm8XXj"
"Dielenhaus 2",51.828309,9.44502,"http://lh3.googleusercontent.com/W3mdH6RZknaaPb3UuYYfBSgncMw2Va1OK8_PmSY16ZIS1SwrCU1tq6AyaDWFIoOSsLfXyn2QHKGvCcg6sCUImHKJQGU"
"Alte Schlosserei von 1894",51.829919,9.446103,"http://lh3.googleusercontent.com/NIwvHOQ35wWjlAA0cikfqqlfF5hvjKydVCj8CKXm66_A4iT3xrO_9_2QoyXsUD91dJwpZFXxctGfFvkws0akaFkLkWik"
"Altes Abthaus Holzminden",51.829093,9.445755,"http://lh3.googleusercontent.com/46deN7-QVtVCfk0d5P1PjUj-meqtuEzKoFsen3p1y9h776hni0RcecK1Nm2ocuvaM_sORyVUstX73b2vQ_lGuE-SjsXo"
"Duftsäule Salböl",51.828446,9.445808,"http://lh3.googleusercontent.com/3HqRvEE02wPaoVPsMmAgAz1b0eL-mPaeGB3siq2CbAsSrHyxmWq0w9rYlUa6Dx6TrZz7Vo5PA19mf9Ttqs3cTQ2lMw"
"Hochwasserstände seit 1645",51.828219,9.444503,"http://lh3.googleusercontent.com/oZgzbiHRLCM-7RNty2n8ZBPHtK0rc28ELjaZXKn3OZkH7fYGEiKQ-LTHE-XYXW1xQf4rpfkd24WKTVxI0pDAhr1vUXk"
"Das Dielenhaus",51.829727,9.444987,"http://lh3.googleusercontent.com/htYBtJ_EFEO2GBYavNIf-sGwWF2oCOFZ_VzrxiXVZk0z5oAi45dYuSgs6OUqGI2y1VDW--VREs9-MgCRn-1ZBMx1vg"
"Sonnenuhr",51.828588,9.445493,"http://lh3.googleusercontent.com/UycMVWLrbh2YNTPBBoE0T8ljugZTLlX8szBCBmAEYnVVC9DjAjzoVph1QET9WXwzM_JHU8Nb66PYbTAEj0B7oy925Bw"
"Metall Cycle ",51.82891,9.445576,"http://lh3.googleusercontent.com/NZq0Patn2Xnw4TxJLAK80t_BFseVrsl04yeTHjWTeiJeFXK5Ak7uOI65xkq35aY9n6LMANRnKLNldVPMHMvbOPb3CJ8"
"Infosäule Weserrenaissance",51.828343,9.445876,"http://lh3.googleusercontent.com/emdNJYQR30HJBaIwpMLsB5-bgdxfS92s9gbrTvd0N5MzfQJAsmKEY3q0kVxRTMaRXguPdVmImMqj5DvWkmPvi2CESv0"
"Wandmalerei Chocolaterie",51.827722,9.44533,"http://lh3.googleusercontent.com/kL5rz1JsflUHFhPZIOnXJE4WbYsGBPDUOe_6hspVg3PJi0AU5lnleXvbYC6RpA4adqRLyruufZqwTBIVLtr0LWeRfscV"
"Mülltonnenkunst Der Kuss",51.827268,9.445726,"http://lh3.googleusercontent.com/aRcBmKuVC9tTJws7JdA2m4PAdla_nFTtMKinb0Bmq6MNrnq3A2CNtYAqxPOZPKu4l_qqaQzbil4WtjrnG4UFgf6-c-s"
"Wellbrunnen",51.827757,9.445298,"http://lh3.googleusercontent.com/uEAi7hIP69a2Em5nwJI0QUFx2ZeCydE2FLdApCbsWOwBvxvO2TUbN_zfBHJdSZsLxnXaBCytfCU_N5LvkIH3eENueiU"
"Sehenswürdigkeiten der Stadt  ",51.827163,9.44464,"http://lh3.googleusercontent.com/ufHbI-ZSrkYt6ihQcXDZ2pPq9_7C6XVMbIQWvDBKZuCiHeH3MFTEX-z7VA2tHhRZu1MzjQjXSkqfSeGI0UViYRXBrns"
"Der Speicher",51.827241,9.44538,"http://lh3.googleusercontent.com/iFCWbnkedCrOJ38OTsoXygI3H3BuQ-9NJSTx2r2bF-6-qv0ITWBpqXbrtVw4WVyieEC7GM7mdHXqn0iITVR2IxnbNozB"
"Info-Obelisk \"Stadt Holzminden\"",51.827709,9.445944,"http://lh3.googleusercontent.com/Ixv-f07tptBuhIz1O9VYmcF92ukPezcQe-Cht7SlXZFQtzoLuDJw00ZzcEk4zBmvkgKonjWUlG07vlc6I120Rsr0ol0"
"Brunnen In Holzminden",51.827658,9.44483,"http://lh3.googleusercontent.com/Y6E5XQBbJoal1ACQ_LnIKFrR47JsDzNHxwHl-iLmP715N7n9O9G5SOKeZ5Cg60a3wj9n4SXPPcyuccGav29msnBtUgg"
"Schützenhaus am Schützenplatz",51.833684,9.443359,"http://lh3.googleusercontent.com/Gepzqo8bKxWW-E13fNviWTMW9Z8q84T6RzfTsyX5uvTHphw7A0EDtIDE8vheJvJY4O3Z4vOO-H0rrRiiC4qnybiiaSw"
"Kreuz am Wegesrand ",51.833565,9.424126,"http://lh3.googleusercontent.com/bSKdDIw4NaSSkalr6K29DNHCC62PvfOCN_8LG9D1j4xeKiDRp6KIrxBmdGN0N8z43AB6xx0ltTfGHbk7AmzdOcExQlQ"
"Schützengesellschaft Stahle von 1575 e.V.",51.83141,9.421357,"http://lh3.googleusercontent.com/o_PxKueUGwsEN5oAUpI9NvYy8Bc4KLFpM76bvlg1M5JhHhjm8t6AxTsmlTj-5piQ6w0etHgDtjqOpNO7tVdJS2v51Q"
"Marienkapelle Von 1705",51.831996,9.427306,"http://lh3.googleusercontent.com/e3QyfDCbaaLp06vwvT2p0Tk3UP5TMHYdlL4WbrKYlXfazmoA9UUPIAOWns_hlZJphnAA7ZmItKN-rEWjNFk4N8bitKM"
"Prozessionskapelle Stahle",51.833802,9.430933,"http://lh3.googleusercontent.com/DunTLlGgG6r7UlhUMxi1jH10JEVweOKi5oVo2vLwUvsE_O2VfMRZEuMx0uTHRZWKptNKDoe1KkV1Jmr2pHm3MedUrFg"
"Wandgemälde \"Wachsame Seniorin\"",51.832852,9.433183,"http://lh3.googleusercontent.com/RUJ65-lFQao4DU3QX5Ou9WDGc9b0ZiUOVXHW1x9lrymR2kNC__4YjOOcYSahemAUO_UCHcAGNEFatez4p7zVLZmhxzju"
"Kreuz und Stein",51.831255,9.435657,"http://lh3.googleusercontent.com/hfdhkiRyKyTXfa-aJHOTW5aL4ik3pB242Uxjlpj3h8UpmdiVO_Pcza7_BjnOeCvi3hP_tX8eqt96djF-tdJXfFxIxoE"
"Spielplatz am Lindenhof",51.818654,9.449122,"http://lh3.googleusercontent.com/dTOF1mlJXpCC4aaE_8fWa786L-7aPTrzg9uO1uInNt2ZCyILcBHcUe_vbv5qQcmmmPjIkxDmnDbl8iU-SyOUuZrry-c"
"Friedhof der Jüdischen Gemeinde Holzminden",51.819684,9.445779,"http://lh3.googleusercontent.com/YsY1tzJIy1tX697aLt2OsVLhsJWR7W2Av307qhgipaVGjcyEioYQ8Tg39Tu2S0GjURofN9vw5SrI74eyD4HT2YD60g"
"Infotafel jüd. Friedhof Beukampsborn",51.819958,9.445584,"http://lh3.googleusercontent.com/4I1a-Q6hYrDEW8QMZfkVws5zSqJrb0GjT1Urds7lz4n1-_ybkVH73OPoduAiy8bkWa9EqWMnyY-6OWZxP7T9vuQnHds"
"Spielplatz Hainanger Holzminden ",51.819848,9.446898,"http://lh3.googleusercontent.com/I5skPFKp0nH7awcbHb_kieXThqm0EN0NjdENRO0hVrKUf9VgkWWhBKKm6JaZOe9-pwzU8PYcG5Gaf5M8KA7c-Ri1qw"
"Ev. Freikirchliche Gemeinde Holzminden",51.820917,9.448115,"http://lh3.googleusercontent.com/Ro-pEqPq1FAWvF4XFEWgW7O7n_X7_JoVO_nvgQwjn2n4dLksrRTxTff7EMrigdrsQzirjXEWZ5dvGuDc0w-f4vCUkqA"
"Haarmann-Gruft",51.823273,9.449605,"http://lh3.googleusercontent.com/7kceziFBCzWFbdQIdPWsgGqNJ5QUkxlSPWuUCuSGKWjRe2NQuet1XSNFB-gJ66esLPgjQdQMcJB5zsSHsZyb40mr7lA"
"Der Naschgarten",51.825483,9.445584,"http://lh3.googleusercontent.com/0nk6iFiF3_axIs1DWvlxxSj7C9ZRQwK2L-Tx53mFCyjwhTz7ZbUKD3qVzssgxmMp31RoQm5wWvabKX3hggQ3hr3qWQ"
"Tilly Haus",51.826779,9.44582,"http://lh3.googleusercontent.com/2YedYbz8Zay7WBfVIgk3MZVOJWAy5q1qyQDhegXbjQqpdW3uXPLj0xNaOsbNs6q2WqGIWquL_7VPqZdcVs_5qxwim7s"
"Fürstenhaus am Haarmannplatz",51.826929,9.449782,"http://lh3.googleusercontent.com/gHT6FaCacFjpDAbbGEhDZEQI5FvrmAe5EgcJ_JS2BfXQdkIF7Rncy6qowOaFbQhhoYxbS7_9zGqd9SRBMfG9Isu6tFIJ"
"Brit. Telephonzelle",51.825015,9.448677,"http://lh3.googleusercontent.com/uRG93ry48tzqetje_UTVbpKLWs4wvbSfzFg2zyiwFH_txCZ7O-N9uqs38NEOUGt6jbDeIW45uAQUaMzNwfePzCIRKg"
"Haus Des Hafenmeisters",51.826322,9.445008,"http://lh3.googleusercontent.com/gHnS5DcVfZ3nCAcD-l7jxSXwFGvz10dMJgtJf5-G1j_51VLFYIrneo-Uh_sCNWrbR9zMZJTJV7A23vop71GZbYmDmF0"
"Historische Hafenanlage",51.826698,9.444856,"http://lh3.googleusercontent.com/0_BufVEw_KcHXQXSdC2x8H0CcyjOfUcFkBgsY0tkBVuIG-ceQsIXG1pAeIZCh8RlJqNcdh_l23mWVRM3ZLmmvT977xA"
"Duftsäule Kamille",51.82671,9.445452,"http://lh3.googleusercontent.com/NEVO5N3HUXJeA411nLN2N9Dc30fsqI5EaP_yqzh5TcavUtpFZ2WSG_AZ0_IO-_Irz4A0dT0UyfeWPrK6MPGiP7JCKIw"
"Weidenhauskolonie am Naschgarten",51.825199,9.444766,"http://lh3.googleusercontent.com/T03Wgr0ufCK82L7KKznuI8IgygwB2A0ablGCgTvHUDVi0w6v2MbjUYg_x34E_WRhHH7tXvGVbSSLmF-WVwQNG0k6yQ"
"Alter Eingang zum Felsenkeller",51.822101,9.456036,"http://lh3.googleusercontent.com/ZQVTpM2_MKiGhNtM1c8QQas2m4nPLTk0ZE2l6AiQqK8htMBkyUpCOGirjKlkjmTMFrcT1zXw6DIYG5sD8Lf92nDVArc"
"Brücke zwischen den Teichen",51.82618,9.454934,"http://lh3.googleusercontent.com/IiJBRMXR0KujSuSLoA9KZO1kSq5_t-SH28U_KpH1ZKb4wgbF71ayTZ2XsHsKX3Y1gKTfeaYkL5nUlntB8R0JXJb2IQ"
"Josefshaus",51.825279,9.455338,"http://lh3.googleusercontent.com/OCJutnAV1TNyY5c9uySu9s88tbESQhvXacfIrOmFlojDdP8MPCRkgWU0kWHGi02Fmmb5tuwXKTex24DavQAGA7IyMiI"
"Verdrehtes Klettern",51.827005,9.453626,"http://lh3.googleusercontent.com/FR414WXmlEBl-pHTOqfTuLI6wpjIdzRbnZ4yHpAyE0Ax-b7vnNor7nlAqCS1kN7xfY2b2jY9GwT2yc-B3ML_FUSAA4M5"
"Wandmalerei",51.824973,9.455003,"http://lh3.googleusercontent.com/GkUfwa2rXjPzATz0USokni3Xjuo7ZYWUwAftV6KYbDt-QotXTJtD8tJEUVlWJuy1wfkLMSPB5j2qcqyZLD4KvL4W2w"
"Eiserner Schwan",51.826509,9.455722,"http://lh3.googleusercontent.com/qoQeHf-lF8Mqig6pepePZ4e0Qdvy9h4PYaZLTo6VS0hTeCvqq_mYgJPrhegokn-DjSSOEi6tpZ_lI2VjJioWSXldKfI"
"Blutbuche",51.826392,9.454542,"http://lh3.googleusercontent.com/z78D5CEuWsYrrzIznUTtd7SDQ7vzwqRkHYKTHylM4JP8kUugcgWc0-YMshwXYTYumEzGQG__XnXDFqPXfr4d5eovX0M"
"Infotafel Kath. Pfarrgemeinde St. Josef",51.825667,9.455639,"http://lh3.googleusercontent.com/-T0BJJB7ZhP5jVE2czp-5l-A9_vubegUq24NNFAYH8nywV_cSV7KH7TC9zlw1hkcc0AUAjFCI02_8dikDEoUzvhbUHk2"
"Turm der Steine ",51.82646,9.453021,"http://lh3.googleusercontent.com/ZA26O0fZdcYdUwe9_ecwjPLkGMG8Qd_BP1tOZKndlMXpWW_Bj8RoSEQZnpvH8EAe7lgm0BCQ83C0nnJn-FSpQ9LYWhc"
"Treffpunkt am Teich",51.826287,9.453788,"http://lh3.googleusercontent.com/-9KgBJLETLYq-D4D7sNLuBlR_OSFMw1t_0PkAXa_ZXSfAXd5nDqz-hZnOEy5ve-Cuvb0Z52NtV3shrDWaAlkj-sHgA"
"Spielplatz an den Teichen",51.826745,9.453806,"http://lh3.googleusercontent.com/FZMsR_-kVZVypJAtInFrzNi5AYAGWWV2mle2OuVVoggaYMuhbCPZeQJFeDvsU7myuWBHUh-CZNvfPnBdggXgI3dT5g"
"Gedenktafel zur Wiedervereinigung ",51.82597,9.454752,"http://lh3.googleusercontent.com/8gLDDwzXS5Ns9Qd9Lfr2RDtGEg95bUPZ709X_ltgpz7Z8FQugiGHqX0-IWEIP_QTixZWKytzFxXtbkQnIxxlqPKSypA"
"Fürst Otto von Bismarck",51.826471,9.455254,"http://lh3.googleusercontent.com/ShDWwvJ5xSfhK5VcypdpVbk1qw-bpWWLCgCthlM0YjgrOEJ-o2jUGV4zw_GDN8_85ASgLIdw0-wZVyz-MBT_CjYCjpA"
"Kreuz Im Park",51.82289,9.450908,"http://lh3.googleusercontent.com/5IvsHSkq-cwxIsXE4EnSb3b2KAWPCEthDWgU3NQwkp2dKyYpHEyuUvVrZ3q5LZ_coxqytzFX7qEZwHiCw_lD81Q9Kg"
"Gedenkstein 1870-1871",51.823156,9.450365,"http://lh3.googleusercontent.com/v0vyVhLpXwDXOVlBD7ONIfPvNAoXxtd0FgOYOIwu3QmcPH-sW39g-kZesTQUnqW2z9taM1NehosJooZkgQNw64tKDQ"
"Gedenktafel Im Park ",51.82306,9.450622,"http://lh3.googleusercontent.com/Dx0dBaO7O8xpPtTYAMhooNFAjNlJGAws0zFOBSrUf65rcXVJuZjkl_k2bl_VGbPYeFg5uRHfpJDZQ8658QxRuHM_SKw"
"Patronus",51.826969,9.450447,"http://lh3.googleusercontent.com/1ukjrl6FtSnldrAG3RII7okQNzKeVjmqHYLsItSm8wb0u2yy24yUbXllHPbhOxyO68Sjm8FWgaUgOQyGRKUXhtfCUvQ"
"Wehr Zeitpunkt",51.826767,9.451231,"http://lh3.googleusercontent.com/dPG8Yn2Zy6yns4rYnKZDTmH0M0bvpXA6hF5Eg7yIHbi74CRa0bROOW0QRyf6WiD1SNHsasKncCWrBe-JR8m9Y4wwug"
"HAWK Bibliothek",51.82656,9.451276,"http://lh3.googleusercontent.com/YThmcHcU190NVdi37uUMDCa6dQ834T_ioGw1dgNjdslD5SkOSfeGb2XpyQS03eCiL5kJMBWcq8T7B-ajCap2V_rsNw1r"
"Kerbstein-Kunst",51.826597,9.452425,"http://lh3.googleusercontent.com/Zkah-MgU0u6XREVJOVWZgId4914G33cPaOFX8S-KfnRDg0tfn6gLcBGOCARnHlxAzU8jsH6Dh3ujaI1pOr9NloZpr5Y"
"Deutsche Eiche Holzminden",51.826302,9.452514,"http://lh3.googleusercontent.com/VnliGfJezoIv-Otc6tlWzAZB94gd_xnm97IstRLPvF5WyNrLyPCWnvDkE_GbUzpJfMD52MjD3jTKa2HSy5612N9QN-Q"
"Grenzstein Altendorf Holzminden 1988",51.826057,9.460613,"http://lh3.googleusercontent.com/rbEy_NtrLz-rxgzvqpKQ5MGmatAhsMZlm4Ljzqmfnn7bWOUv96Cqv4Rh7aevBZA_uRwahKZF7O8kGwjfiXQSscEmf18Q"
"Freimaurerloge FREI und OFFEN i.O. Holzminden",51.822656,9.452434,"http://lh3.googleusercontent.com/AFB5FL6oLj32fJEnX2cLMPnw3x_E88KDJ8avlk2NDSpXL9qfPJM-qAbKMUj7bIj-Mfh1a_xAkbdtrL0n9qi6sGGFjQ"
"Gedenktafel 1939-1945",51.822332,9.451755,"http://lh3.googleusercontent.com/AD0RV8ZnN00vFy1A2j8Bn929mWAe5_mwtpv7-b6FhcbT3MqmKLVCrt_yimNczxA6St8FKkd690qoEqmozrL0sw8DFeSJ"
"Krieger Denkmal 1914-1918",51.822655,9.451677,"http://lh3.googleusercontent.com/vm2tWQKeo3RaQfRFofQ7Srt8SXS7fPZuvr6cGczaqOolBAMcOPa1DfUGgKl-xpEHB22rhGzDKmyvSMub-yINnq8_1pc"
"Kaufmanns Turm",51.826751,9.45665,"http://lh3.googleusercontent.com/_aUo-62wb6IFD6VQYsxvkBzX9XU2p6oUhcEFRsvKwrU2NLZmbs1-s-T4yxHxJ8m8LEsKdNFM8cIvl5GXtPmJUKMmrYI"
"St. Josef Kirche",51.825261,9.455861,"http://lh3.googleusercontent.com/fXMXd31xNC7dyR2cFfXG3JjL9MjVBzGCz3876ZSJtoHb3tS2CBvwfPDo0BjAGRCStK0qD4bjN8DbBbQgf56nTA8j4w"
"Glockenturm Holzminden",51.825467,9.456387,"http://lh3.googleusercontent.com/IsFmBHWxno_1RxMpemJ0_z9WFBvyrDaX-OCyz1EBd1zwYjYXqO3iynrm7R3x4-HCWxYyk68vlSYyM-JPOdFlDb4FmoA"
"Eisenkunstwerk mit Kreuzjesu",51.820276,9.458128,"http://lh3.googleusercontent.com/_jkZo74aL4MkuTnv4Gvpk5EWHzZa04L6xSWRt7j-1qb559RQux0HXO0A4numzdgQH1lx4DeOnM5ZafC0lOrtG6WKiQyA"
"Kaskadenbrunnen",51.821303,9.452969,"http://lh3.googleusercontent.com/2tea3jG4zQW923lr16AcN3EBM0f7UpCloxODqQt1BCBiRGxmZB0oqtl5cOIv5Ntc8-gmE-yUgbD5xqUwSfeJKHFh-mk"
"Bahnhof Holzminden",51.820139,9.453237,"http://lh3.googleusercontent.com/btRJMdG_BBMVyUtbI4GipHiTQ-4b9KF1i7pFcKC7uKdMZYlSU_IeW54dpV6riNcFTWDgJH_ShMAn8gnxo886D23q7Q"
"Altes Bahnhofsgebäude",51.821148,9.453774,"http://lh3.googleusercontent.com/Q-pSK62VQhoBX1RNrD4jVvw--A_ZT6g1JAk2bL49LWiASId5EAotguaEHW7yF4yMMrcNaBllWhcUooah_uPEzEJFwfs"
"Spielplatz Twierweg",51.835546,9.423227,"http://lh3.googleusercontent.com/Kx53ZvDPBmzHMFwCJ8IBKTGRBI7KLWoDMy_-7xO70McQhfe1ihvoCDPE97EuZYkHvY6yD7qxsV67CIViHNjWnqFM2sdI"
"Friedhofskapelle Stahle",51.837671,9.42729,"http://lh3.googleusercontent.com/cYLmTP4df5ROTi_Im4XCuAuNJya84gmyI7frCmbxroxUIbk09ADbqS0BOb8ZNWtdtP8sS_f88ijnTnhbwUEOIF6AtVYU"
"Prozessionskapelle Anno 1754",51.836693,9.427387,"http://lh3.googleusercontent.com/O6bRE3yexRLr0rLz2A_zvfLrSqYRDa1Qrpnx5UNbiycrWZgtpO9Vhl8oT-yBK9hsTkk6L-Wpb3RHD1w7FR_nML6BXUI"
"Infotafel: Projektgelände Jugendwerkstatt",51.818667,9.451828,"http://lh3.googleusercontent.com/vSnxLyN2Xkc2jPIeWSburg0ZszN8O6f8lCSxzaM2cySGhiaSAPu6od47aD5UdqP4QsLmltePrAIR8JPHUFOexnPyhnI"
"Alte Signalanlage",51.820111,9.453068,"http://lh3.googleusercontent.com/XZo4gGAf0m5LLA6i8ijTttiOfJB88HQmFZLMK6frqLEzeLYOcMIAdT6v8-CTHkfswQMCOPsiUSFmZSgCQokqkAi4Cw"
"Königreichssaal Holzminden",51.835007,9.451196,"http://lh3.googleusercontent.com/xGVphxmjNX0EYb-mJY2iEGurHztGC0Kln-hxbAGMO3rctStjUrvQKPwvcJXUOUm_Ai6-9_z6oVwrAro6ylTBapCuSkU"
"Denkmalgeschützter Torbogen",51.834199,9.45136,"http://lh3.googleusercontent.com/mHE_xLaAHJOs-7qjK6gtdTqPpw0j1nl4V2cwXO1i7LVj_05TcjlomY6jbTUZ9ZbGDRhyQgMoRu20TEpPVEcecnmitZI"
"Garagenkunst Tierwelt",51.834513,9.453984,"http://lh3.googleusercontent.com/hadv_B0mj9XuXwu0ccDJWRQKwSuT9qSfhEKkKi8jfubSWnORVhzfp5eiChU7lmiJTrgWwiK9v9u0-y8GTwyLxArgZVk"
"In deine Hände Wandgemälde",51.83422,9.453453,"http://lh3.googleusercontent.com/o4_xEQM0-uBZjWpPGJQjojPuUWQXtXe4FTSKLjOGL1wfd7-PglwPfZqFoe62Ed5t3_eIXMQ2W-JlB71nlvqDMFP7f2Q"
"Glockenturm aus Holz",51.83715,9.459966,"http://lh3.googleusercontent.com/pd228Z5wdUAOa7avUHnxTdXVPiAwgKfzslG4v1iP8cxM-0wIWlEnTlWNPORLKbkUHZO82syqaeLPl6ti3pq716OOtMo"
"Geschichts- und Erinnerungstafel Holzminden",51.835723,9.460828,"http://lh3.googleusercontent.com/Hdj1hF6hVb8t_r_9KsXxFeuslsxHd6EjHwsfpmk77K5LkUQmsHkcO2OtKxtDC5sdSViNX7eBrUJ7bxDn9qBZWpleyHE"
"Geschichtstafel Holzminden 2: Verstorbene Deutsche Soldaten",51.836199,9.460317,"http://lh3.googleusercontent.com/arYqACY0PX_t3JQPVYKDL3i4lT5OiBV7VlYGCd-2gp7gLwsD09U2KWueRomF64wGngmGfTXqzspQgdqJQK-Li0CvMb4"
"Geschichtstafel 4: Ungarisches Gräberfeld",51.83656,9.460772,"http://lh3.googleusercontent.com/TpcWhct69Y3ybZ8tG2lBb3PmiVghOIKuL9md8WcqhjCuHoHNJG_cugCTgrpPfOfBuXtMkKopQ8bavDvK4B9rehCTMQE"
"Geschichtstafel Holzminden 1: Opfer Der Luftangriffe ",51.835887,9.459926,"http://lh3.googleusercontent.com/qg9p-tKf-SVY0KuuinrDaRz_yO8hsIFBS8XkqJvOTIxzQPq5SJwI4N1v05flwd7scwkYPQDDgAAJ-VrlUQg-ovFPYA"
"Alte Friedhofskapelle",51.83594,9.460788,"http://lh3.googleusercontent.com/0l1pl72QgImWHlWBpwMuERuOBXlf-SUiSeXPZqRJpurdFsK1Sk_hHkW1XBszfav1XvNzMdlI6UOfhSRYF0HEHKznGwlb"
"Kriegerdenkmal Stadtfriedhof",51.836641,9.460198,"http://lh3.googleusercontent.com/fOVKCdW-BaV0QEMCw3uvA_yZfmZ7gXKEtvWn2YCFw2Vr02vGooOdPLm3RIc8G3wPieTamFRDo7nod-hZbR_qQHMospyP"
"Kinderspielplatz Steinacker",51.836313,9.455853,"http://lh3.googleusercontent.com/UG2gKeWBplTj2pId30H2SyxrpgiiuDU-cQT2koNR40OCKWwy8KDynwR3tMJ4Q2QiEhGM17cik8gIZFKVCiXM6lzfhOs"
"Kleingärtner-Verein Kiekenstein-e.V.",51.837181,9.455858,"http://lh3.googleusercontent.com/odMmreH03IbONG4yQw7BnsQYURzAhnWWPlKEqMjBebZBmjfFKhKnOHWnlvowP31AGc5uGgHwfCKRtSJKbP3KyxN_W3U"
"Neue Friedhofskapelle Holzminden",51.837443,9.460053,"http://lh3.googleusercontent.com/RKad-JcW5nAgxY9TU2S8iF3ApheOuEX8kJRhRZiYSJDxdeGyU5FAMaFiay3bEYW8zSuBe3G7--FCppowT8ljboFfTg"
"Geschichtstafel Holzminden 6: Jüdischer Friedhof",51.835896,9.461392,"http://lh3.googleusercontent.com/Y5JNvnvQwwFbgD_C_QTla1XkXPKezRhKvKMtNuT5LxINTrZY_prYpF7B1K6sGE043Vo_wAndHOv-efMzUlk4Dh5FmbA"
"Spiegelpyramide",51.837046,9.461568,"http://lh3.googleusercontent.com/Yhh4JlfssseV9-_AgERYP5TULgKwmLY-v2YGsR0bP-IN_Lj7ZUceTTvNg6_QC0-TytSANlcV96LfIYwJV_AAQrJzERo"
"St. Michaelisgemeinde Holzminden",51.834849,9.465083,"http://lh3.googleusercontent.com/mqlygL1tqWKBz_r1ekda-F2KQ7qixO28F7EkW9nW04g0jwhnO788wNsvEe8W1TjLED2K04rfw6CuYx5hE8ZUrU7y_Xc"
"Kletterburg Holzminden",51.835608,9.46579,"http://lh3.googleusercontent.com/1HFWDxgiJdTocz4Qypkwyv1elFUIuM6Wj8rIrvAQe9sRbc6-HK5WpiPvsvMiuEDJBT9exnZkKfyF8vW7tQeKdQOaCN8"
"Kleines Spielgerüst",51.837622,9.463772,"http://lh3.googleusercontent.com/ukyfL_67Ke7coYEVa030jKogEwZF8lj-vrsz00IayltdllGLt6ygsgw2_EGPlfNMiCIEybHQjL6_XKpxlyVk_pR9nPCK"
"Bolzplatz Liebigstraße",51.834995,9.467951,"http://lh3.googleusercontent.com/tm_6d-K4KMC4rL993R7hkfXVYtVsRJ_1AmOe0lK7kvPZ-e1QroxEJpX1sE7pTx-rkrbMFCwXDN0J96-5MkQYQb0ks98"
"Tennis-Club Holzminden v. 1928 e.V",51.836064,9.467604,"http://lh3.googleusercontent.com/Pvpnun4SP0Y1UPFumdIfb5bk-rAVRhasrbnIRqK9TlqFWvUwZG0i_iXO4xP3BNLJ-e6WyFeZjVlnbKdQiciPuEraXPEJ"
"Infotafel 'Stahle'",51.835083,9.435155,"http://lh3.googleusercontent.com/LDedPhRTDkzd0PDU4FPHxasvN-mTVPqV18-OtB2RidxeMC9S0NBwkCqnpBTwg9cj6mSuKFwcO8ipLnDcRT52_2eC6vA"
"Fc Stahle 30",51.834251,9.433329,"http://lh3.googleusercontent.com/qg2bq7dlok3jQYi2HP417fL3gW6Du8gV_GFXWUkqZsqDQxAahopvEDeKWvsxl68G39hKDm71y5m5oG8Eu5yfy9woErJ-"
"St. Anna Kirche Stahle ",51.834646,9.429722,"http://lh3.googleusercontent.com/aRfhLRg6zJDaPo-_IHjfkOQm9CSQyx2VOiwYFg5H3UVwoqu9gzmCC-fh-1SpPlC9y34AXoETva6nMwkNiLX4LqKVug"
"Ortsstein Stahle",51.834984,9.430055,"http://lh3.googleusercontent.com/oZKYwh70niyovdqVq_0SELlfEKRvHJlhvXVOwJ1zi4I9wI0DA3r1TRGM0lIsnnkAsXKLm-2PdUBjXN1NBRArRlkV-ere"
"Missionskreuz",51.834595,9.429267,"http://lh3.googleusercontent.com/JfP5Uxn7NAkNvDCcLxqcBwp627LV1TGokrMqZ2JkrP8OeRp-Ore2L4mHCPdzZKH--kFaiUbg9akL9WiZWPBfzcqYrTTT"
"Kleingartenverein Weserblick e.v.",51.837643,9.437927,"http://lh3.googleusercontent.com/R-0vI7tPM05WmMby4Pg6TMZkQpmyeSDCm6LIfEj27RzcCzCZKXD7eHx_7JQiwOwCNCRPbj6HuO53OUPDzyfj5_yIjQ"
"Duftsäule Vanillin",51.827346,9.450631,"http://lh3.googleusercontent.com/dNzDhVT6hk7g8BQupcD_QPErOEPBvX_5J9D-X7RYA2WiG9y4N_2MqgHg0AXBn62l0nsz_X0PUO9NsH_bZHclAFf5pA8"
"Kranich",51.827127,9.451624,"http://lh3.googleusercontent.com/nAc5Ge6I8xdquMkZL8akqtEusZSDgjdrDyv5Ih1MLPuiS3Ciw8rYv33r_rqMgGNdRcFmFBd5N6Y64dXkVVBNG1QuBYA"
"F.L. Haarmann",51.827633,9.451589,"http://lh3.googleusercontent.com/J_RwPQTOrCmQHlyv2PCiPjk7sRrxySF7oIXmWxMs9MZrmXHKnawzI1-nBTiFxMlbDaJCemIfUlOmYrPFEh3qh0-heQ"
"MTV v. 1849 Holzminden e.V.",51.828489,9.450434,"http://lh3.googleusercontent.com/23BxqPPU7jMmk6CKof0sj7dp9wGrFJQbTUmzzDQU4ytniy-N-DJ5odmhrhlyMjRKfye2--R9UzX76QDquo2Ssh2u7OFw"
"Die Nase Von Holzminden",51.827557,9.450225,"http://lh3.googleusercontent.com/e4yux8OhRnV7Lk0oixmWlKR6DJVTMD0Usr9XZ30_VUMFArvBW4ET743Sok7JixfxSwOxLs3QbBRTtDRf3N3W0MAd7bc"
"Ein gutes Beispiel",51.828959,9.45205,"http://lh3.googleusercontent.com/0rv_kKviMxy13vyYR49gAgKEfxB5ZR_inpGNC7n4oisw9M1gN-aAenlTk1QOtGKeFJfLjsGIRyKY4ATnJ7xlS1WJwk1V"
"Ente Oben",51.827315,9.452663,"http://lh3.googleusercontent.com/Gv6ijaFw0HdxJAWTWmdwWu66zJFIcMkutEh6xp3SlyMBbe3ol1_4oKR7zgcOh32VZlQIlQbkSQr2djOpa5RnSX1OGdg"
"Uhr im Zentrum",51.827847,9.450738,"http://lh3.googleusercontent.com/PiPImt1a8PM6Bpb8NfFNYoqcjRYiWn8JvV9AKgkqhja3hxdQW5cvbZC8Vwz1Wm3YexxTKW57h4xLbyCGWpV99dVrow"
"Landkreis Holzminden Statue",51.828938,9.451281,"http://lh3.googleusercontent.com/fyGwAMuPNWXRJYDQcZh0_pe8D1h8A20Y9mVOts6nK8G73DjHxgA8kuEnN5RQni5DyAg2M0OubQUmpH0dSi8nzr4HIHU"
"Stein Säule ",51.827689,9.450528,"http://lh3.googleusercontent.com/x9cC0bOoapOHYawqV59XC7XiW3ub09gpDjwhfJu62M19Vzc_TX9_AWEdtzB33L_9lb0dl-vPur8iiEHHBBWAA_iaBVbZ"
"Karrenhaus",51.828802,9.451085,"http://lh3.googleusercontent.com/Ah9PsnKDKKYtT8fI9IQNWWR0ndC8NkOn1ogXkuHGukXZqjsW1X6azAXxjsuEDvh6WxET91ZC2cRoSafoVdFH7QUVN5m6"
"KS Holzminden",51.829306,9.453354,"http://lh3.googleusercontent.com/HbQe4GmslRaOv1qwaMmiLvfisVA8aG5yykiDgUlde9zlPM5-4XxWSCiQ0lQvdDONqZy4axxOV5BoxxtSHxsbiPs11VQ"
"Goldtaler 1972",51.827473,9.453994,"http://lh3.googleusercontent.com/wk80irbaehkmvLzNQKCNr_tNLTKMDMmmlio57LrhgzZd5OeS57YORUAFTd2118VYRynadjIzqZ61Ib7JCslIrHxuP-o"
"Blatt Aus Stahl ",51.827507,9.453163,"http://lh3.googleusercontent.com/PklmGVXEbGxe3sR6pqsEBN-H9HNRhlt8MelxP_aiJCP7VRVtjCMa4_y3Ep8xNRyr5QKQSK3FPTiS-CqVnTv45_SnHuI"
"Three Headed Monkey",51.827256,9.453255,"http://lh3.googleusercontent.com/SmsdO7G1KBRzqLeJIBNAvR1S0olj2Ksn2e6Ps9fVhl4AsL7tce_VhTYFWhFJZlmZfNdt2aWFryw14L0txP9AWioYqhC3"
"Red Ear",51.827825,9.453131,"http://lh3.googleusercontent.com/omUUE1DjEr2qETFBnpt4-lrsc4E6i5Qaa6TUBa8EPGJ2lmahNyOPnUAHReKEUYcVbxXcLxOFkE0rKlIlSAQprvPeeGc"
"Mittagspause",51.828107,9.456658,"http://lh3.googleusercontent.com/nQbB-wajztkxOYty-729gW_ybt7Lx8BuPPKx5czcM4q7n_atjp5RaqpJtTay8B110rVljmhA0tPuTtbXi2TPR4sYYA"
"Finanzamt Holzminden",51.828862,9.455054,"http://lh3.googleusercontent.com/otrPNsF2rFSi5RsMVwrBaqQ9yQNfJhjXKiCEMSuyMOpi-IQFf0ugGpzA9zDCzyoRhKynDw_cNshfiy2kF_3hG1_R5Oc"
"Eisenkunst im Kaufmannsgarten",51.82721,9.45662,"http://lh3.googleusercontent.com/6YymqNfDLyadd3H-1hIiaZWpetprsOFGOTGOGEj_WtQSc70T4CFS8bLod9VZ0ZoiJA1Dts0NmRCHggcqd8J9RH4ZgQc"
"Antikblumenkübel",51.827487,9.457485,"http://lh3.googleusercontent.com/FLR95aQxKoktpf6ztv_AsuIyuNomwhCxGH5DRMcaBhMuZ5LFHzc9dT17BgVWM5StQTjX-6EPv5rFnzb4FfTndsmfGrk"
"Garagenkunstwerk \"Donald\"",51.828512,9.459341,"http://lh3.googleusercontent.com/PJGf5Ff9UHYHdIUQCn5LYWmLqTH7LsGV57x9HGGTJHgjwT-j8-LIS24-BCEAuLqdOQA0BUMHeezgdSREsZYSQwGZfQ"
"Graffitikunst \"Flower Power\"",51.829466,9.45858,"http://lh3.googleusercontent.com/vssYUFe7o5jKs_d5Vg2eIMSLlR1pqFoIgLb6PIn6uUQKYHDsRLjnYb29YiKuph2tRKbNI5PnfUTTV1mc5vpczRrx49s"
"Spielplatz Bodenstraße",51.83309,9.460105,"http://lh3.googleusercontent.com/5vlqiv9GLkoPqSJ13X4oVLHjcHu_ElxC-Xu3dMUAaa4K1VgA4Ge16_fxXKHyteoOPuE6UizVR4H_lyAemyxjMZV0OXs"
"Pionier Kaserne am Solling",51.832485,9.460213,"http://lh3.googleusercontent.com/Pja0QZLZ7_YeFNJyONxYoo9I8xt7TsVyB5OQgLdKwtmAsXY9T4L5rNW2oJVXfAi4c4czzehe983_TfdHS2r2n2s51kTr"
"Sonntagsmaler",51.829912,9.454417,"http://lh3.googleusercontent.com/JjYa23YnRbXbYDIUaJ7Ob0JWvjkBAJ_UIbhCJu7pFns2hnUFbJ7d9meWsnzPlsgrK85kr4OPiLmVotxg_41KF848B9E"
"Teufel auf der Mauer",51.830902,9.4548,"http://lh3.googleusercontent.com/wVRzEfTl10f087bcRJOpe50yuSAH0SjTtOYx_VwQ6hLrfhKgEZaZfoUZk3-YHts2g_d38fGOiCPmjASSEj6xySswvpGl"
"Spielplatz Holzminden Rauchstraße",51.818881,9.464159,"http://lh3.googleusercontent.com/Ci9nibw31ascsEjbEayI98tJsDyssimR7TgOB0f6OCDGRsJ6jsdsNouoxiRXSIy6rD5_c1HbJdmK4-RS0puq86mQJ1IB"
"Stadthalle Holzminden",51.827484,9.462141,"http://lh3.googleusercontent.com/pw_FioYz8pFdwwLNYvP7PPIgD-dgd2xGxzWcM5HanZUNQLPhsrMjhS8OGL8vS6nDuGkJeNlocuGv70QdRHnLRzD2uOSj"
"Garagenkunst \"Pink Floyd\"",51.829277,9.472391,"http://lh3.googleusercontent.com/UoYcIGmcH9O9N_xFU1JyhXiiw0NFawbX2MsKwSVawh9A-_I6HI9Tkt8crLe3Ejov5V55K4xhcPmCZgnFGl6C8FoQa3w"
"Fenster ins Grüne",51.829386,9.470966,"http://lh3.googleusercontent.com/OTsuobHX9ClJAEln5BDixToZ6bpoa7M4Slk214MqSGNXesbyVMn7yOB2gBFpIK-oAwQxFlXOLIzP7Ct0916lYGCazt0"
"Spielplatz Liebigstraße",51.829823,9.467238,"http://lh3.googleusercontent.com/rVUg5Esu1F0_ATpblAJ5-4j5-Z4m_kksL4-dFnmiUoG5WViUwpY3SedssepKfD5xee-mXrLhmlhc1ketPC8IvE1qYw"
"100 Jahre Schlachthof",51.8341,9.440751,"http://lh3.googleusercontent.com/bPjR6RwjWBMhoaC_1YqRU01olTxJyTT2y0zL6yLaSQsK3Y2Y0UOdcHPHZmY8ucRFZwl8NiSdq9C6mgN1ZizV-l8XEA"
"Marine - Verein Holzminden e.V.",51.835621,9.439054,"http://lh3.googleusercontent.com/cPM3xbwXPnPkKM4-PsTNoISIwyFgCQsvbtxwN6-nHO5a1lPAV01NNbn38-W6Pqc5YABAwOt4ffJe7-n5917Cv9584tw"
"Kinderspielplatz Fuchsfang",51.834884,9.447536,"http://lh3.googleusercontent.com/F36MqUmCNwPfyFnLKOBxtHt-rts1N9084PA5bHfXlmFcaeMv4nwB4NUekI_6wM2FCbrG2nfrYnLOWaAM5Qh9BNGNtXM"
"Luftsportvereinigung Ithwiesen e.V.",51.834964,9.442613,"http://lh3.googleusercontent.com/ZwCg33WxeUKY7sOVOVLAj-kq3LbT9i6hUkvbbvd2CWXRr3HDX8rFO3NCP8FFH9T8oNTWpspi89fpyhiXzA6-jsZdFog"
"Wasserstein Kunst",51.83465,9.443803,"http://lh3.googleusercontent.com/ULhegVKeKgVL_4P3zM2pUHCNk7BXAuki8lvGiAMtLs0RZUEUmuEzqwqjnxTiU2RSm6BGTKaVait97boiMoggJQgYww"
"Wandmalerei: LKWs",51.836612,9.447235,"http://lh3.googleusercontent.com/X6xuuKa0ZmJK1m_CZv2hBiBIR_EHc1vc7RtaWVYDNcUlVOxmTc6ikJMn4AsoACymCSFIOo3c5ryob_fAZCIMZckl8M0"
"Steinquaderkunst Holzminden ",51.837754,9.449243,"http://lh3.googleusercontent.com/xrrJ3RQ68U5InC12TYUkHmQ-59k1hQsqLulX8NgLE4FJXtQT2cVgZJFfNA3HU3K_DIlbK0zcnxQyaP9MbVfi-uLeFQ"
"Stadtplan Holzminden",51.836678,9.444931,"http://lh3.googleusercontent.com/QKCvVYCz4VkxvbaZfa8r-BZSY3xENcB9qk2yqckM2vU5mH2YTV4n4xsVjuRgvk6sOokvUsRFZzmtUqi9Q3UEJ4j7H9Y"
"Spielplatz Kokenhammer",51.826331,9.466763,"http://lh3.googleusercontent.com/xJLmJqHVmQo-cBG46UdhtL9Bq-x5ixBJm0UgSHxGwjW64EPdY7CXZ1WkUmGS7bLlN_1DS48NKFt9JtxKm9BJoLUgPIh6"
"Spielplatz Stadthalle",51.827007,9.461455,"http://lh3.googleusercontent.com/5ePALNOKSCk4vO6THUvbZr5lmgNox6zJEfc1ComhV_e4aPKgiNhnGWds0D3OJijywBBCQ-KBQYpKh0wOREh5kpxmrUGP"
"Neu Apostolische Kirche",51.826166,9.462496,"http://lh3.googleusercontent.com/rbSSFg5vh0CjtrPT5gvuthqDU0Eu2jtVgzb8OAdFc2I4V_fE1OMaS5rQkyHhGQKxtwVjvt3rDamZuI8XGWMFJ0B8sZE"
"Kriegerdenkmal 1914-1918 Altendorf",51.821937,9.471897,"http://lh3.googleusercontent.com/Npx9t3XM4vR20TmiSFCSi_reOktcS7s2qCZ5I9gbglbrCY8bOMXFWOkXi1q6vOg9EWe17a-oE-VkzYZipMGn5Di1_A"
"St. Pauli Kirchengemeinde",51.821101,9.471715,"http://lh3.googleusercontent.com/1LqPP3m__V8LbNUDYgdvyPNcRUBdM-y8qCIe0FhLGZOnMhejGSLZ2JpV4jKVuDQWqQxfqm8xh4b3wdOXmXFvP4KGaus"
"Spielplatz Riemenschneiderstraße Holzminden",51.8227,9.462561,"http://lh3.googleusercontent.com/y6_Oqc9pU_vKeSUkikWZr6vFeBs_rQRgahvgKWvEtVS6BAH7u6-FtICTfr3OjmM2NFyLwSuV383kLjqYmgh9cdipBLxP"
"Spielplatz mit Kletterturm und Rutsche",51.82533,9.469716,"http://lh3.googleusercontent.com/Th2CSKdvlY9OQnHqcWNHbGFQg3vY-ir-tc0KoelDjjMC9YsqGA7iiKh52zXQmuIO-CxZSOuKMnTdi-kXuN9d7NWBcnA"
"Streetart Sport am Verteilerhaus",51.823943,9.464224,"http://lh3.googleusercontent.com/cLZkXMp3pJwuCuh395r3xDQwFAC2kHEv2aUae2Ui3rs_U3ww2Oq53b06Fia43IzGU22atyp3wu51HhTrYvslxgmVBA"
"Hellers Krug",51.826109,9.464523,"http://lh3.googleusercontent.com/SxMY5K13JEfPJFqOi60IwYLm7-VVth2_K3b95GHio2Nke43PFglIa_6YbFrm3mZRTdBY5tFkLRxwX5Za6Yln8HqtER3N"
"Kirche Altendorf Holzminden",51.824951,9.46482,"http://lh3.googleusercontent.com/eCVATJe-eP7iMclcLW29moM8Ythlck6FslkG5PufziIeHegkLAlQe-K_l9zQQAdbQMohISca5-67el57YpKuY5tONA4"
"Gedenkstein 100 Jahre MTV Altendorf",51.824611,9.464604,"http://lh3.googleusercontent.com/TaFZxczGIqs4bQQFhLnqjGeCSwHzNuam77lFxwG93dzK9cgEeTk0qDcENNASSVjHmalH_nhBNUXCb-qoIFg267f79IM"
"Altes Gebet in Sandstein",51.824969,9.464475,"http://lh3.googleusercontent.com/pJYb6wjBoCm0q0crDCof-9Tm17B6rKuXWZw-r5MXf6raJi7aGgV3y6dbD3FRAkjCu9wf_ggkefrEM_vhETKOcSFZEHY"
"Spielplatz Wiesenweg",51.826652,9.475031,"http://lh3.googleusercontent.com/BLAkFMlCwBtaik5__mscTE6yeVt6SV6F3d6S_gChZ3iG8v1OZa86Z5bEo-6WDnDEhZ9RIfgBoLTq4ftq80gSLqCVBuM"
"Spielplatz Bergstraße",51.838742,9.452823,"http://lh3.googleusercontent.com/1quQhRRsjrTgepaGRGWUKsCBuBxfQVTFacDIbijmgulc6zHcY5FdHQSuEj8gfd6aF0cqx0_CIoZR4chqDKzDcQjIwGFQ"
"Alte Dampfwalze auf Mauer",51.838456,9.464115,"http://lh3.googleusercontent.com/SQkNw1lA93TjUxJgu5QHqkP3bmpNtQmfIR7tsf9JN1B53YPhy9jcQuPIhFCDLjU0Gqc-p89iUcrnuzWzE00jKEA-2dYn"
"St. Hedwig Kirche Bevern",51.854594,9.495829,"http://lh3.googleusercontent.com/knY-wp8vrgibNcxYevmumN0aGYL66TkYiJBTAlXGlQbkLefeuDO514Q3OvEcDvCtx977PQT4W3kULjHZcJaXHokiKj4M"
"Bolzplatz Bevern",51.859288,9.486536,"http://lh3.googleusercontent.com/qvAIlq-usNqQLvDAdTtcUZ_3azwUR9ij5Sk-p3bn_u4I_NGin2R-WUbSvLCdVYeMQXiUkCQa8AGZPsji-QUTyH11puRN"
"Herzlich Willkommen in Bevern",51.860099,9.48992,"http://lh3.googleusercontent.com/ImTh-tiiunRuaeazAN4uXAlKuD51aoby9Eoomv2NhG4LEIuURMyy9pLepQ_-2nc8MbKIWqB04b0eGfFVYNZIaWxuSj4"
"Maria",51.857353,9.494098,"http://lh3.googleusercontent.com/sYopt1_WDWEqj1LZ_EUpQ3NzgaIyoRmJzyuRsvHdFQQ5nFxmYzelb6JjuQEwTmScCtvD5fJTFcK2-aLSGF2uUdf9rw"
"Torbogenspruch",51.857851,9.493042,"http://lh3.googleusercontent.com/SqYvAy0Q9Up9KaMbTf2sr6rXV8oEoUExK0W1fs6Y-VKQsA4i4pPEtZldd_q_PQJ_IXDhn1GsCttSgn-_wv4h2jMz6g"
"Offener Bücherschrank Bevern",51.858016,9.494753,"http://lh3.googleusercontent.com/5dd0lW3aBMakLnZRWdUcXse_RQEEBqLwYuWXKLeBafo7yhMuoGqLA-k_JztASigsgYdzUpTXXsDMHzsEpMEd2UFw6-A"
"St. Johannis-Kirche Bevern ",51.857132,9.494086,"http://lh3.googleusercontent.com/fY1r2UvigjVquG5E_jb-55sWzqKCQ6NaZZVxDXy2eMgkiLjR5XJH_ooU4JR22Jp_zGdyXR55iwqrYAKKlXKidwxHDrg"
"Historische Wasserpumpe",51.858079,9.49226,"http://lh3.googleusercontent.com/_Hr50h0C9M9IMOfYY1DHxWDrSTrDhiYpIT3aGDK9gKkGEo_krX8fg_8p9EeIBOsdCiJmZv1L-EwPol5LsHB-RKUO4-ke"
"Schaufelrad",51.858272,9.49246,"http://lh3.googleusercontent.com/-rtaYRpximxL7GYS7gZAdIpeDP6f5LzOsVuEGBXxkAz4NmmiOTPW3_6k6isSRjG_VD_DOmMQvXT_L5KurNNFGZKFNg"
"Spielplatz am Pfarrgarten Bevern",51.855661,9.489502,"http://lh3.googleusercontent.com/_3VKoNINQMqKF4WNeN8eepuXJG94pWMaQOiWx0JSzjQ2ul3XovahUZ6R_Tlw9avycYSauKHEPT79_8htpgwbjqGJhQ"
"Spielplatz Erlengrund",51.857434,9.50119,"http://lh3.googleusercontent.com/JIz3DresUsOLtoC5tzKKSw-H6yn4QIb6bclPCfs0bDGXOngUXGnsnZ7CkZacceYg3zYZL2oDsNmHxW3yvoPhHN0QMg"
"Spielplatz Eschenweg",51.857989,9.505875,"http://lh3.googleusercontent.com/DgJ6m8YEdnQi-CFfN9LMrOnsHSE7TdKhGfTfnd0qKjoiikzgWOsErPC0wON2pLHx16zuCi40Kz3GuETWsOlahRoyNg"
"Wanderparkplatz Bevern Breslauer Str.",51.86013,9.505871,"http://lh3.googleusercontent.com/EYXLMEMpNFMZqi2odXZ05bozIbDnGwzoidDHmHjvIzZ6Q0KjeKHREcm6l9iQcHuwW-8CkQpIe0pfCK_nDeiA9I4axcI"
"Ehemaliger Schloßgarten",51.856491,9.496616,"http://lh3.googleusercontent.com/3k7OHocNcWrdALZjEp3Q6YM9WxzAUMxxR63SX70YPYXyTkE5RM9msPM3qHacmZgCzrpP_CNsKi2x89I6R0MndzwsAJU"
"Kaffeestuben am Beverbach",51.857765,9.498287,"http://lh3.googleusercontent.com/bKlmKBtW3kUa8sMaTAhI_ahqjREIP2XxSEwhB3i_Wkz8ypJt40U5BVVHHhSE0iebZNjMTNwItrtEGaNNL3tzH8o2olSi"
"Spielplatz Sollingbreite Bevern",51.855612,9.497452,"http://lh3.googleusercontent.com/pR08sSL1vxQ6h1KLER-RoLeVIGfEdYW6zL-DGFOnqy-NE3Uyb7dL-jYwzjWtIQkAEcTU1XkxxCR3RYx024NOt74jMFA"
"Skulptur \"Fibeln\" ",51.857108,9.495472,"http://lh3.googleusercontent.com/d8nHHKM7ndRKbcMoW49n0vJd7doiyGh1iu8hD9k0RUP5l7zxTbAw5Y-tXKN9l7qh5piapspE0WACCWEnrtGlw1l9XQ"
"Schloß Bevern Innenhof Nord",51.857507,9.496246,"http://lh3.googleusercontent.com/dPctUYmYdyETqo9xMQ4LL155bK_lyV3dZei5CBCb734Q7rnM-zJEGkvMKQHEW4WfW1glkeYX4XVtoTzOLaFlLAcDqGc"
"Schossplatz Schloß Bevern",51.85726,9.495657,"http://lh3.googleusercontent.com/KhRRk9fdt7nA3kUeLVp_G8mt7zBji2lVmSo_Z2TYvYm35Eqvt_ZpA2xYJQwLWCfxFaya8Jq8I70wE2UC18Gz4M5ukQ"
"Das Wasserschutzgebiet Nordwest Solling ",51.860338,9.505785,"http://lh3.googleusercontent.com/ZaHnlSlDJGuhyoEWV3RxxuQqgLHt2K1xKJwvhqyLagUE4B1sgDBxuAVJuL70mnsK90_D_a6g0pGHDkRxKCOjPYPMcI-w"
"Freibad Bevern-Burgberg",51.857447,9.508011,"http://lh3.googleusercontent.com/Z5Mgj30QmFHPUNJzeiSYGy0sXwYT1JLmoGBSewwy6mKDm5XJOe8NgGUHPNLpJrfmBdW5eei9TroQMJS5110DeTNcZ4U"
"Europaradweg Euroroute R1 Bevern",51.856915,9.51056,"http://lh3.googleusercontent.com/M-3peANi-kRXtP4AIvdhg_y1g-eN5NUvTJIE72aDKqw0--yowAxnJzq8m5UxEqXBvkt_U5DGQTTpo4hfj19LSVIND6Q"
"Gedenktafel",51.855421,9.506731,"http://lh3.googleusercontent.com/8TKR9mqOGj-1HRuOGxvzv3ngs6R48pBm2XpJqmuQLd7R8CxZrZk0qfKHd1iQ1SLgTl5cmPYdvL52yKwPfTbYCSoQA-I"
"Kriegerdenkmal Lobach",51.865266,9.520985,"http://lh3.googleusercontent.com/3bi4OvQntcQeIXk3IQwH3DGlghMo20UMAb91km4vQckFDIznxDDlXs9TcIWzQ5Z0uCKk66HehHZn6F86V4hv-puMUZM"
"Friedhofskapelle Bevern",51.862801,9.487468,"http://lh3.googleusercontent.com/gWEYCkyv4-M2cjMjJHARhz9Zlhiqeb7LZe7ymQHWwdNVbbd5BukopW3i_vNK7Ep_HNvUjfXFBANb7vRIxGr_xlWCCeWE"
"Spielplatz am Medoc-Ring",51.862015,9.488941,"http://lh3.googleusercontent.com/lUjsopmAXXB9VOWETIa8uRqLyU8p3Jb-L30P6-KDNCCzJg-jejUvuz2iTxKbfda1berC2CsgKrr-FHxe-SxQNJt8EvYc"
"Kriegerdenkmal Bevern",51.863071,9.487874,"http://lh3.googleusercontent.com/bpjG5yKz71EIike7a0fCzPgCB545ztjmSzkt_0a7N1vGctZDfkZJCmnlpm7Txu98-ssCR_GVllKUUqqiYNnc9jgA17A"
"Kriegerdenkmal Bevern 1918 - 1939",51.862551,9.487307,"http://lh3.googleusercontent.com/G2r2kXkLy6sMvdGxGEznF7IvNXlvWHDRnz3eUBRkcyQACu9x_NcDNJlJpELVEQV-BkfWWJVoQ3zm1n3pH47_HjFUfygr"
"Spielplatz Bevern",51.852757,9.493217,"http://lh3.googleusercontent.com/k6oTAUUe9-dZ0UPk6cx_TbL12_A9RZ8VIWyPVcHy6JaVjWo91dSQDFndTCXwrt2CJ0EEigUZ8SL1x4drTaQ3dCUozu4"
"Rastplatz am Radweg R1 und D3",51.861052,9.483464,"http://lh3.googleusercontent.com/aMclkI5WjdXheukCLFuwQHNlZM4Dhkunv9vyxAw2gBJ984nRnW4fG7HJRmQKRst6nSip5o2hv68R2au5ftRqswAosQ"
"Weserradweg Forst",51.878887,9.471345,"http://lh3.googleusercontent.com/qoZDfxe7N6UH5uGniwd7sZSe3wwM0jyNVAkOB1QgBvkcikXY7C-5Ucdog8-KMBOmvN8vdrjCG5sKGvQTNRLguCv31kQ"
"Naturpark Weserbergland",51.8791,9.471471,"http://lh3.googleusercontent.com/fioDGEIktBtXUyIhDhQtdI-5_K-hFcBERPOxk_REpg_l30-zwJbYgGejSzTLgOx-qTsIiCbHsgRVxDU1DKb7RHV_Tg"
"Alter Amtshof Forst",51.879097,9.470592,"http://lh3.googleusercontent.com/Q9aB1YdStKdQNX3NpqqY8OslgmeHM8axaCEC8TLr_5dizXnH7NLQ0jah2qKi0RdvqzIxsToy_iH2CoPXIZ2udpEolMs"
"Duftsäule Thymian ",51.828333,9.444255,"http://lh3.googleusercontent.com/eavWfh0cUFDGxYNq9AiS5U9xwwWs1UkPmjsTjnsxoifpOmWs-YnEpewvWZTHcux6Ej-FTPuej1SePcs66ERvbfE-9um3"
"Niedrigklettern an der Weser",51.828205,9.443738,"http://lh3.googleusercontent.com/JYvXW9VS5ZJO9KKvQEocJPOYre4TNFvfv96SZLfI8Kug8Yp2bzBjfaPk8G1flJcqf9nTZbPu8CKaWoJuZxebGvU2vizP"
"Spielplatz Weserpromenade ",51.828641,9.444011,"http://lh3.googleusercontent.com/lX6Zz5-qWCPBSPklF4m-Y1IpKBJCkXYp58auUUQU9GhONA44pFGagLVxIlfgZgXBgDM4IXSwo2xv33V-zQ0qSij-sFM"
"Grete Heinberg Garten",51.829718,9.443814,"http://lh3.googleusercontent.com/nm9Nqs5yy-Ein-7b0gvAil_4_M9oJJULKuCr0wdolV6Gk5fv5MT3tGPMl_ONSdvEpIFGshhf4lFj49OFc4a2MHWRLg"
"Memoriespiel",51.828711,9.44362,"http://lh3.googleusercontent.com/URTGCr0b0hhBycxAJbMv3HNT7p3Mpq34jbQHdvYvlAdmTJC9gD37h44v8DLOKCvLc3V0ybNgmzp_9j_OuDvF1B7ksA"
"Statuette \"Der Photograph\" ",51.828426,9.443798,"http://lh3.googleusercontent.com/w0Kg1II0hPSh5-umWOfx73r55UHQFnCIZpp9Ak3o4jWk9DeqB6HN8SFzlXj1sr44ott2EM9k1v0EjBQNLdGrZLnUeg"
"Robert Wilhelm Bunsen",51.829423,9.443988,"http://lh3.googleusercontent.com/n3Mp8gy4-sG_vCfkr_UwJbIbLgCCLwGyI3ZvTsyegkhXHDEtemgrkQ3XrR8LsovKghG0N4_2IndRNxQvo_a2e3oyRzo"
"Kanu Klub Holzminden",51.828137,9.441833,"http://lh3.googleusercontent.com/KzNQJehsAF6pUmplpLxOt8k0gOAC382LfArdaFz79JFyxtBhv1Lin6fvDvDdqspvybNYW68I4r9Y8Y07k7hzM7mO_A"
"Skateboardbahn",51.829274,9.439787,"http://lh3.googleusercontent.com/-e4jFrF5x5GcC9RfFyoLWnBoGEDku4B3yvmPi3jy3_3-7C1l1bXmGzDa5pXSThTPQpKW4an8jrwzRUn8U4piiWznRJRP"
"Willkommen in Holzminden",51.828208,9.440345,"http://lh3.googleusercontent.com/P8VonRWVKjOWOX2y0rMuSfpgVwnqsj52LrDWdGhVqf74ilVcvydWHd_xJgmcryMjIvpbGBNUsr3ty6CbNOiU86y2giE"
"Das Eichhörnchen",51.828171,9.439265,"http://lh3.googleusercontent.com/UhLqDymyuGhiM1ghzSKsS_KG-y091plJFa6sQ8LXRj9g2nVb31jj-s6FEi06OIX17RufdXGoKRjuzqHZaBb7qsu8Dg"
"Statue der alten Weserbrücke Holzminden ",51.827836,9.441571,"http://lh3.googleusercontent.com/a2Kx_6eEOOQ-syzvs6VMwMf-EoT3xhR_ivKuTrHkacTaV8YD4_acVCvTq-gAxbCCewqvWbLMvrvjaU8HnK3JyEJXL4w"
"Die Eule",51.827481,9.43953,"http://lh3.googleusercontent.com/BEli6zcs3srknpFgWmy9palwQuCXrrSDsRRlQ9fILaZNSM6L_cmqHB23fQM1mHBLei0Pgpzlpc08akmTrQkYdvuqmPg"
"Hallenbad Holzminden",51.827633,9.440451,"http://lh3.googleusercontent.com/ElbqcFU9tBXck1AEOMdGde6jv9xwdwoFFnWEjh4WQzPB9n5z93H57b-yEiq56u51q93o-fV3weqJd32oN-k83x43BQ"
"Metall-Baum",51.827886,9.440868,"http://lh3.googleusercontent.com/L0vpaXqixqgW8lAJz3kDc3YZoGR_7-Q_lXRGv3r_6s3jmRrwm0NwTffHc6a3__jFR61PI53TCqyH40HCW1FzmaZZRHzz"
"Antik TV ",51.827343,9.44347,"http://lh3.googleusercontent.com/-DMTjnSlI414TnbQmg18stemtPA-9JmhStMpJCtU19ZDg61KsdzdAsqXOm7PsQh2DWpBWnwVZs4Q3-VhHeDyQn48dVc"
"Hotelturm ",51.827114,9.443838,"http://lh3.googleusercontent.com/WKlpOMXE9qXPHRU2uRlC3GczITjVAHQm3GSMAKrobJ8p-JMlhMA6FVcnCfa2rPnzon1fzeG3tN_LtrG3Vyebap0TpQ"
"Tunnel Hafenbar",51.827755,9.443541,"http://lh3.googleusercontent.com/mKmjm08mC7qxKuPQ0y7dJ2Fsscd6oGvysGg-nzxZH9aquhUIcp73N6-T3uQOXt50q9PnP88PcHsoDubgJ03TngSIP5E"
"Das Pfarrhaus/ Zollhaus",51.827428,9.444059,"http://lh3.googleusercontent.com/o6u3O0Om6gS_ON2ULaHLKwbxIZaCWBdKBhTGt2MgEh6LAcP75-qF6yj5mHT88ao_gA_ZM_ArjH0O52g5P6CnHhuSlsU"
"Infotafel Holzminden",51.827593,9.44378,"http://lh3.googleusercontent.com/RYo0I5vBQuCE-lrziaRWWQJ2pdAPLF0cLU7zF9vUtS7lWEIBf_opXeBwpFy95UAHUwmF5CYafsoMzN5pjYRqBXGxvz0"
"Wasserkran ",51.827163,9.443412,"http://lh3.googleusercontent.com/1Pc_vSk-P-YwzqlP5XOhy6SBIi_ZLehfxRkluLdFevHDeWle019d54SFdjBX_5Oky93cSJa4kq38iAeM0SaTtTgPCznj"
"Europaradweg R1",51.827475,9.438757,"http://lh3.googleusercontent.com/8KT7JSj_hzZbixsMa7cb4esS3zLT3sln4zNA3vq2ge52MJlhPiOz4tGcpaDM8ZHXqJDn6knY8dLcoM1Fr2VmjdLuBg"
"Stahle Ufer",51.829581,9.439458,"http://lh3.googleusercontent.com/_PJtah8VWig5FGifNY_UtmOy-sSkm1NOST-NDOJepRxngWs5oW3S3MJZJSr35YFkz1hY-bo_6tc5mmsRKBW2KYFDjWE"
"Tonenburg Und Saumermündung",51.814446,9.405312,"http://lh3.googleusercontent.com/E1rIWwq52NZuzvHSnMaV5_kN-jKgmysPpKDumE8Hyhh953P80v1NufsWwf5OsZ-a-C4k7AdmSkbzPo1qZ1XNrTz1Sg"
"Sehenswürdigkeiten Höxter-Albaxen",51.814119,9.405278,"http://lh3.googleusercontent.com/Wo1CL-f5YpjlyMHmnVq7yiFTERi3ePmavhaUz3pL--PUewN7_EK1MbgjRA4pIHvmyzNLoJ8rqGcNvHemYapsfQzh044"
"Marienkapelle",51.81997,9.408605,"http://lh3.googleusercontent.com/tK_K0J2c5t6JUBzI8flErwu--dcADQSzTKsrcoQK6ZgSfe9RljvHlDLNxsKwGJyl2sxuZKXJ6dS54qC7StAedTbiHOg"
"Informationen zur Saumer",51.815608,9.407903,"http://lh3.googleusercontent.com/lbqDD9nZr9wy14JONF220-G7g_ogZSnkPmBnYm_A2so4PA5jo1Q2D9BvKe-VlEeAsV7cinH0zmeaTO483SivQHLDFmM"
"Sandsteinkreuz  1902-1987",51.815467,9.407582,"http://lh3.googleusercontent.com/4-L-PnK0tskf5X2yCTwlHBnezRT8YtoFJPGPPN5qgKtpfGROb0vf96zjXpPZiAqQV1pKGLHSepSiY02ydHD8TFhzSepW"
"Schützenbruderschaft Albaxen e.V.",51.820268,9.406407,"http://lh3.googleusercontent.com/CABm2LluCoHFDbKr8Ht7M6yStWl_TmWFmVXLqJH2RxQgoj5rjShs0dnnS6UrMTRv7aw71Mczs22WWlF4xO1WqerN4oGE"
"Spielplatz Wehrstraße Albaxen",51.820146,9.407267,"http://lh3.googleusercontent.com/vFASvKYX_pKgyC0yFxsyRmoB6VyEGBeQFc-UimsnfYWMN_u84vGh2hFSJgUEtPG1H5PtT6u17TBehcVTm8dHVM3UVmg"
"Spielplatz zum Wesertal Albaxen ",51.821214,9.405242,"http://lh3.googleusercontent.com/bichkkVu_HTA4riWNFuHTuIm4spyPUN5CjG-kHtpy3fQbWGXW7q4Skrk6gsn0BhlWq66_6rMLbPmkq7egmljCizmJY4"
"Spruchtafel Albaxen",51.821669,9.406644,"http://lh3.googleusercontent.com/iXEU-22UKBi0jvs89DRytu6fHqoJylp4A7GHPf4uFokdn5daLOLVqcUF4p5FdMWhE8UVplTENMM3y9BtwiGSoMKQBpM"
"Missionskreuz",51.822688,9.405319,"http://lh3.googleusercontent.com/zA8gvYdctmSVd3CdmocEwQuyrn5NGB6ZWubmYyXwI8GBwUnOVA6zZlohkyMXnuku_vKTddK7hQbbba13If0jL2T58g"
"Begrüßungsschild Albaxen",51.824111,9.409061,"http://lh3.googleusercontent.com/CtiJPdzaUQhNo0tY6YDNy3afk8PbJtxuGkGdE1pBAm5NMpQWhjXZEwz64z0peayFUWau2TLszFO1_b3U8-kdySF4avni"
"Feldkreuz ",51.824894,9.411965,"http://lh3.googleusercontent.com/2Wh3UNunDrt9azGzhzGij1h85gfS8k4sh5c9p7acRfnxlH9HRfgOmnZYNQVjGBSOMMm0AEw4piKv-rZ-I9Lr7z0HBwc"
"Feldkreuz",51.814195,9.401558,"http://lh3.googleusercontent.com/B2QhIWuqWimUYYc-IpIKXFdOQ3gpOxgCFFuyOphSwPbenF8RHw3v4sis3MMY5hZxU1Df8uIdYI7qWavPTtBqgIobUWA2"
"Amboßhahn auf der Tonenburg ",51.814259,9.403682,"http://lh3.googleusercontent.com/stz0mx3fVXZE5DqkbF332EFuGNrY8jmc-8g6dZob6tBJTbuPyLxZRcP49x1EGFOpzj4zVCjnqU0JGUpQwdH64JGYSCQ"
"Tonenburg",51.813966,9.403691,"http://lh3.googleusercontent.com/0CrFlGUrzx8qJ09_l_F3Ov899PB7tn2FU5_9ysv9e3xiDFIJHymbTxhKE8Y97wOA_tdZyBDZbaaa5uQKwbUQJNXp0oA"
"Alte Brennerei Tonenburg von 1660",51.814584,9.403093,"http://lh3.googleusercontent.com/4eB4UqG4DMBfRCTK5AuFwVRsvEb8kgQBz_FEbdr2HwWQjYvHVOsv6R-ApiFr8nCusC1cQikjXiCJa0lDV3--guYTMw"
"Schilderbrunnen",51.814488,9.403657,"http://lh3.googleusercontent.com/28nEoB3J064tpwVJgltLPp2jeinFIc9uwfUIYhWx1mnipJTPYiiMGrnsL3cwgCaL1AGUTi-yIgj3GKMT8wCoQHY5CweW"
"Heristal",51.813718,9.40356,"http://lh3.googleusercontent.com/L5DLutGixYndIygP9gamhgOJB8RGBX31-RzZh0mi-ty_vWD6kuOlstadR6PFebfkiZUVmAkVbE0Y_qVwP6iu03laKA"
"Totenkapelle",51.819187,9.399579,"http://lh3.googleusercontent.com/a3EhWce60jpR-vMo8b1-EGbCV6LDStibYYvsKZVirn68Eb2SUGSl5d4GPfV8gs_CVo3N7X4jJLm2FicG_UKrxc5nZdpz"
"Fensterkunst",51.819137,9.399255,"http://lh3.googleusercontent.com/QZCwHPUmAkxFpZb_Et_DVZVPpzuCMfQY6LghEsHe7FXe-gfiZIGTFI2aqoxNZ1z59GObf1PWyY-Loug15523RH2cr6Q"
"Wahret den Frieden",51.819573,9.399787,"http://lh3.googleusercontent.com/fSpVBGu3QeTKopybKx3HoHLnTpjFxqebHtQPzABFPrIPe2W4nsOjt1xf4HyvqWhjuDMMbW57Iip9akfE6HWYtqRJdg"
"Ich Bin Die Auferstehung - Kreuz",51.818538,9.399253,"http://lh3.googleusercontent.com/8rKb1iEDvx4UIEfKcoEJftx9iZycPrctV8Vfwt-BGEdDtbxt2ppIwtin1s-Hum8qoOZL6AAmI7S-ikvZ2BhkjEG4sa4"
"Statue an der Kapelle",51.818984,9.399872,"http://lh3.googleusercontent.com/kHEP0V7cDE5p3Q4ff3eddNaGCc-US63VoyEwXSavveK8K02kimUfkSzzF9MwhI-hEAVPBJ_FkeOu_-0XDhE7ICYJFQ"
"Willkommen in Albaxen",51.818233,9.401093,"http://lh3.googleusercontent.com/5De13ihEIbMMWU1U91MAVBlFB3ZD96FoqcgcoRVpI0TrbIIcD0mqslxfdp74CZwJ7pEbx0_n0Y-QbiCj5r5x7HCTN-c"
"Gedenktafel",51.819469,9.401895,"http://lh3.googleusercontent.com/91QAn1i1BrM8b4KepUUmg0Snc39A6N_FV4BU2Mr0uE0sIsnOYGCH_iQjhVbC08h7UCGAu0IpziFG_0MvJudSmZ-Jng"
"Kirche Albaxen",51.821366,9.401436,"http://lh3.googleusercontent.com/_RRzm4kK7JythOucfb8nKKSxphO1kYKAMM5h-FEeAs2SMD-jSskLqn5UgbM5krAbRbvPyQghfjqlq0UGyPp0LagC5FM"
"Alter Torbogen",51.821852,9.40077,"http://lh3.googleusercontent.com/3WcnqjkFrp-ylzk4LnDREwQXiKxoG59vM_uO6lOD5IyzVN3MTqlzHMiQwEzDiYuqDtFvpuc62jjeio64Srq-DRgQypZB"
"Rundwanderwege",51.821838,9.399492,"http://lh3.googleusercontent.com/u5WigUeVKXw709wpySYZjHGyMVfzNFYBT6s_rn4LOKfp4vzugBnJjAjhnKi0U_cW8Nd1MxSVGEdYg7yGyTQmSrqGtBg"
"Wanderkarte Albaxen",51.820861,9.400037,"http://lh3.googleusercontent.com/dNAGBj1y98C2GLNPiLVz5zPN1FrgKXE1mM6wKs1T5abowv6HqVNWExACLhUoReVYKjfz05AVj41T-zdsGfh6z5WaTzI-"
"Prozessionskapelle Albaxen",51.821911,9.396237,"http://lh3.googleusercontent.com/LKQ1olujIpjFFvr3iKhBS1JKtklIXWQLN6XfPfb1yoFJXzTkd3I4j_SN7RyF0fyB7ILIPcIXHm9lmTQ4rP6OjGS5Yw"
"Alte Schmiede ",51.822052,9.397599,"http://lh3.googleusercontent.com/FZWtbE_wbQUOpDXZgMbPyVPFUTT42VC_-sClhS1keSzuIXtujsNfDSkDB-Y6K_ASZvIBcRh7qQd7E2QCF4Q8hLryPQA"
"Im Kreuz Ist Heil",51.823538,9.398144,"http://lh3.googleusercontent.com/PGem3uRcqcx5P4Xr8UJUZbM79SnDL8E4DtZvjpyHPGfvLY4RXZjtQMxfu3fLef4jtC-HLuLmY87Hi-EVVOeC3Y58o1w"
"Backhaus Heimat und Verkehsverein Albaxen e.V.",51.820604,9.398644,"http://lh3.googleusercontent.com/dgzwyz4yz0QbfzH8YjIlm_EViwzs0qrV5jHft7wcBpZoW7F2MFcDxb_Akjg-q1BUK3MI_EVnRsQ9-KX-2cJmRsBKSCuu"
"Insektenhotel Wittrock",51.81745,9.416899,"http://lh3.googleusercontent.com/uLTmq_6hch0HuhUD7tdlhx90OLX_qMc-8YZulKPiob4R6VVnxzPdAQSYyhEPSGaMrb-wvGWvzae5mTyKhrFX0g53X9JP"
"Schutzhütte",51.816956,9.416847,"http://lh3.googleusercontent.com/QRKGENwPDWWvyakQe64iJb0m9TOPktY7CjXnxYj8p6fUWgivC-Y9hi0q9OCuue33b2kZQTKxRojNP0_TJ16aOlqmDtE"
"Feldkreuz",51.82747,9.393996,"http://lh3.googleusercontent.com/j2Pa3GyaR680qRDr9dxADD4Vlpfa8K5fSxG3iCrWFAjaITi0JS1dtrf2gPdiPF7N-hMTdROTwjIVV8HpsiA_poXWrvs"
"Feldkreuz",51.824885,9.388816,"http://lh3.googleusercontent.com/HwETzC4snMDtMSLueWzk6X_mbH9pYxNLpqOxv3NogFHp7lofIZU9-AGmjzDqnwqOOUPAAfoWWRQhjgCCGue79t407w"
"Marienkapelle",51.824739,9.390647,"http://lh3.googleusercontent.com/gUF6tZt1mW6DAkyKFbY4cM6hlbb5hAEYKQFubwQMpIuTLra22CUKou5J_7zsYDKpD-LGwhmLUotXNDCGlnvfMJpTUA"
"Grillhütte Albaxen",51.825299,9.387445,"http://lh3.googleusercontent.com/hdrLtTBMKPXJtSD_O2kljkFAvbq24mvSW_8JsW7F0S_IjDj2qLGUNJyXcbmM-QgYxvGRnrsDomwuLFgvbsOA782Tt0Y"
"Die Albaxer Trift ",51.825664,9.385995,"http://lh3.googleusercontent.com/BXfyJGAlSq-624-zdPuagU7p3yUE53SrSBLiL8eFhkrKIpJWhGEbUpB4la8l31S9Mk6o4njrhjZFksrj7IBQTdnpMQ"
"KleinEichen",51.826462,9.383187,"http://lh3.googleusercontent.com/Ovuv-uWKuAwfiHQzxwfYWtBu9jpT8nQnv0DaqU6t6_0oVAQf_WDBt6Gn_kFJuO2esde4GanPpNezHeaGjXyl3zx7aVnW"
"Spielplatz an der Saumer",51.820709,9.392826,"http://lh3.googleusercontent.com/m_UZpiU1WwNRo1QVNz4meEuISq7SgaPKhd26iDbIYu1kN3ouHyR2-Puip6CV2HfO1wTtEQvzSrsd_GVI-qOIZ33TG7Y"
"IHS Kreuz 1861",51.820699,9.386998,"http://lh3.googleusercontent.com/6_mFvvpj3mragtqCr6UKWIk4de9BXE5xdVBaLU8siDjqe5p5bK52D9Qk1osr4ic5MS7dS9agHNa9VQBwJ_fe51meYLE"
"Mensch, rette deine Seele",51.822723,9.387182,"http://lh3.googleusercontent.com/2nDd9vN-XI8Nc4pQa_xkQWJcydAfRgcfE2egxYvXDlBlKY1xSryYo9dzRJiGZrpCUdW4-xxIQr31kGUURLZLyILxRw8"
"Infopoint Weserradweg Holzminden",51.824352,9.438443,"http://lh3.googleusercontent.com/jaqwXojBJwKbFSVmgAQIac018HpR1cW3JwRqQFWFx72q15H73XMYcEpt0ofzK73P5ELd54bAsqMv5ezy5KBJZfbooYEM"
"Feuerstelle am Teich",51.82527,9.435449,"http://lh3.googleusercontent.com/qW6iJftdsfWYPd3zCk5tFOZtE61QSl-1lKd6twwjxKhwNfBoWFVS1CdvDAhwLM1KfZyN4qSso7ZCR6CEJ-Kqg1CflE5P"
"Tennis Club Schwarz-Gelb Holzminden e.V.",51.827121,9.438571,"http://lh3.googleusercontent.com/PliKBoHk2KoXBPXeWnWsuTRqOq7YtcvxqzNLXBuVGGSuMTa3xpU-5pOis3em5YRvv31ArNf7PDUQawbqM8XSbYaPlFY"
"Freibad Holzminden",51.826524,9.439847,"http://lh3.googleusercontent.com/edunWERo5kMtpUKBMhNjk5Ed4qNGfn9hcm_WhSeci0xN_rVdEFI6TCX3S0QgpEvlJIhmX11AWqz3UvbHpVp6qXW5J4s"
"Herzlich Willkommen in der Stadt der Dürfte und Aromen",51.826912,9.439618,"http://lh3.googleusercontent.com/A5rJXu0liIFAaBSkNDfa1nAZX6ZTj1TdbQC_4a1l9UClOzHX3UKiH-VElSOCfgGJUVAL71B_Lrf9uEIyUiKcMHbmczg"
"Infotafel: Holzminden-Zentrum /DJH",51.826766,9.444009,"http://lh3.googleusercontent.com/hQPtauBqOnsm9f37-IfDSCDqc-1AZ3mj5MBLTV0iIVzoh-NAZ21j6YK1yivQUevaNcrrFLgcUaSRt1PZX_yczo3wRCA"